OPT_Code,Name,Affiliation,Site_Type,Street_Address,Zip,Longitude,Latitude
1001,Comprehensive Kids Devel. Scho,Other Religion,School,101 Norfolk Street,10002,-73.987271,40.718791
1561,CASCADE HS CTR FOR MULTIMEDIA,Public,School,198 FORSYTH STREET,10002,-73.990635,40.722491
1569,BARD HS EARLY COLLEGE,Public,School,525 EAST HOUSTON STREET,10002,-73.975438,40.718761
1600,SATELLITE ACADEMY,Public,School,198 FORSYTH STREET,10002,-73.990635,40.722491
1616,COOK CTR GRAMMAR SCHOOL,Nonsectarian,School,219 STANTON STREET,10002,-73.982171,40.719442
1657,MANHATTAN CHARTER SCHOOL,Charter,School,100 ATTORNEY STREET,10002,-73.984365,40.718346
1658,GIRLS PREP CHARTER SCH NY ELEM,Charter,School,442 EAST HOUSTON STREET,10002,-73.977811,40.71973
1659,GIRLS PREP CHARTER SCH NY MS,Charter,School,420 EAST 12TH STREET,10009,-73.982949,40.729667
1669,PLACEMENT OFFICE,Public,Office,145 STANTON STREET  ROOM 253,10002,-73.985688,40.720511
1705,ST BRIGID SCHOOL,Parochial,School,185 EAST 7TH STREET,10009,-73.980523,40.72488
1707,ST GEORGE ACADEMY HS,Parochial,School,215 EAST 6TH STREET,10003,-73.989869,40.728052
1761,IMMACULATE CONCEPTION SCH,Parochial,School,419 EAST 13TH STREET,10009,-73.982419,40.730479
1765,LASALLE ACADEMY,Parochial,School,215 EAST 6TH STREET,10003,-73.989869,40.728052
1769,GEORGE JACKSON ACADEMY,Nonsectarian,School,104 ST. MARK'S PLACE,10009,-73.984819,40.727297
1137,PS 137,Public,School,293 EAST BROADWAY,10002,-73.983731,40.714492
1817,BETH JACOB SCHOOL,Yeshiva,School,142 BROOME STREET,10002,-73.984109,40.716355
1854,LOWER EAST SIDE PREP,Public,School,145 STANTON STREET,10002,-73.985688,40.720511
1867,Thompkins Square Middle School,Public,School,600 EAST 6TH STREET,10009,-73.981338,40.724272
1991,ALC @ BOYS CLUB,Public,School,287 EAST 10TH STREET,10009,-73.982659,40.728123
2001,PS 1,Public,School,8 HENRY STREET,10038,-73.997481,40.712682
2002,PS 2,Public,School,122 HENRY STREET,10002,-73.991337,40.713194
2003,PS 3,Public,School,490 HUDSON STREET,10014,-74.006367,40.73258
1345,COLL.ACAD.SCI-TECH-LANG.ARTS,Public,School,220 HENRY STREET,10002,-73.986331,40.713608
2004,DE LA SALLE ACADEMY,Nonsectarian,School,332 WEST 43RD STREET,10036,-73.990403,40.758275
2005,P751M @ HARVEY MILK HS,Public,School,2-10 ASTOR PLACE,10011,-73.992652,40.729963
2006,PS 6,Public,School,45 EAST 81ST STREET,10028,-73.960676,40.777527
2007,RESTART @CO-OP TECH-,Public,School,321 EAST 96TH STREET 4TH FLOOR,10128,-73.946336,40.784024
2008,OFFICE OF ACCOUNTABILITY,Public,Office,52 CHAMBERS STREET ROOM 213,10007,-74.005623,40.713747
2009,Office of District Planning,Public,Office,52 Chambers Street RM 219,10007,-74.005623,40.713747
2010,FAMILY WELCOME CENTER,Public,Office,333 7TH AVENUE   7TH FLOOR,10002,-73.992951,40.747621
2011,PS 11,Public,School,320 WEST 21ST STREET,10011,-74.0003,40.744282
2012,OFFICE OF LIBRARY SERVICES,Public,Office,333 SEVENTH AVENUE  ROOM 801,10007,-73.992951,40.747621
2013,RESTART@EUPHRASIAN RESIDENCE,Public,School,337 EAST 17TH STREET,10003,-73.982255,40.733805
2014,TREVOR DAY SCHOOL,Nonsectarian,School,312 EAST 95TH STREET,10128,-73.947094,40.783267
2016,Quad Preparatory School,Nonsectarian,School,25 Pine Street,10005,-74.009962,40.707433
2017,OFFICE OF EQUITY & ACCESS,Public,Office,52 CHAMBERS STREET  ROOM 215,10007,-74.005623,40.713747
2018,OFFICE OF E ADULT EDUCATION,Public,Office,500 EIGHT AVENUE  ROOM 1018,10018,-73.992814,40.752905
2019,BEACON SCHOOL,Public,School,522 WEST 44TH STREET,10036,-73.995846,40.761383
2020,DIV OF FAM & COMM ENGAGEMENT,Public,Office,100 GOLD STREET,10038,-74.003558,40.710518
2021,Success Academy Midtown West,Charter,School,"439 West 49th Street, 3rd Floor",10019,-73.990541,40.763436
2022,P2G @ CONVENANT HOUSE,Public,School,460 WEST 41ST STREET,10036,-73.995163,40.758584
2023,P751M @ NYU WEINSTEIN HALL,Public,School,5-11 UNIVERSITY PLACE,10011,-73.994969,40.731316
2024,SEO - Sponsors for Educational,Nonsectarian,Office,"55 Exchange Place, Suite 601",10005,-74.010907,40.706186
2027,OFFICE OF COMMUNITY SCHOOLS,Public,Office,52 CHAMBERS STREET  3M DESK 3,10007,-74.005623,40.713747
2028,Happy Hour 4 Kids,Nonsectarian,School,121 East 30th Street,10016,-73.982151,40.744139
2029,Fusion Academy,Nonsectarian,School,450 Park Avenue South,10016,-73.982977,40.74485
2030,THE NEW YORK INTERNATIONAL SCH,Nonsectarian,School,4 East 90th Street,10128,-73.958307,40.783895
2031,THE SHEFA SCHOOL,Yeshiva,School,40 East 29th Street,10016,-73.98483,40.744356
2032,P094M@ YMCA,Public,School,122 HENRY STREET,10002,-73.991337,40.713194
2033,PS 33,Public,School,281 9TH AVENUE,10001,-73.999738,40.748849
2034,OFF OF ARTS &  SPECIAL PROJECT,Public,Office,52 CHAMBERS STREET ROOM 113,10007,-74.005623,40.713747
2035,P035M @ M912,Public,School,522 WEST 44TH STREET,10019,-73.995846,40.761383
2036,NYC Charter School of the Arts,Charter,School,25 Pine Street,10005,-74.009962,40.707433
2037,ATLAS Foundation for Autism,Nonsectarian,School,"252 West 29th Street, Floor 3",10001,-73.994439,40.748403
2038,THE WINDWARD SCHOOL,Nonsectarian,School,212 East 93rd Street,10128,-73.950219,40.783034
2039,Portfolio School,Nonsectarian,School,27 North Moore Street,10013,-74.007486,40.719855
2040,PS 40,Public,School,320 EAST 20th STREET,10003,-73.98172,40.735692
2041,PS 41,Public,School,116 WEST 11TH STREET,10011,-73.99906,40.735621
2042,PS 42,Public,School,71 HESTER STREET,10002,-73.990854,40.715976
2043,ALTERNATIVE EDUCATION COMPLEX,Public,Office,269 WEST 35TH STREET  ROOM 1018,10018,-73.991871,40.752486
2047,47 AMER.SIGN LANG.& ENGL. SCH.,Public,School,223 EAST 23RD STREET,10010,-73.982421,40.738622
2051,PS 51-THE ELIAS HOWE SCHOOL,Public,School,525 WEST 44TH STREET,10036,-73.995759,40.761541
2059,PS 59,Public,School,233 EAST 56TH STREET,10022,-73.967141,40.759303
2089,PS 89,Public,School,201 WARREN STREET,10282,-74.013502,40.716552
2104,MS 104,Public,School,330 EAST 21ST STREET,10010,-73.980724,40.736035
2111,PS 111,Public,School,440 WEST 53RD STREET,10019,-73.988853,40.765804
2116,PS 116,Public,School,210 EAST 33RD STREET,10016,-73.978164,40.744772
2124,CES 124 YUNG WING,Public,School,40 DIVISION STREET,10002,-73.996324,40.714216
2126,PS 126/MANHATTAN ACAD OF TECH,Public,School,80 CATHERINE STREET,10038,-73.996841,40.711174
2130,PS 130,Public,School,143 BAXTER STREET,10013,-73.998349,40.718867
2131,IS 131,Public,School,100 HESTER STREET,10002,-73.993126,40.71648
2135,U.A. SCH EMERG MANAGEMENT HS,Public,School,411 PEARL STREET,10038,-74.00095,40.711428
2138,P721M @ DISTRICT 75,Public,School,400 1ST AVENUE,10010,-73.978214,40.73707
2139,BUILD.ARTS & CRAFTMANSHIP HS,Public,School,439 WEST 49TH STREET,10019,-73.990541,40.763436
2150,PS 150,Public,School,334 GREENWICH STREET,10013,-74.01062,40.718228
2151,YORKVILLE COMM SCH PS 151,Public,School,421 EAST 88TH STREET,10128,-73.947716,40.777981
2158,PS 158,Public,School,1458 YORK AVENUE,10021,-73.951045,40.770381
2167,JHS 167,Public,School,220 EAST 76TH STREET,10021,-73.958123,40.771983
2169,P169M @ P169M,Public,School,110 EAST 88TH STREET,10028,-73.955731,40.781165
2170,SUCCESS ACADEMY HELL'S KITCHEN,Charter,School,439 WEST 49TH STREET,10017,-73.990541,40.763436
2174,SUCCESS ACADEMY UNION SQUARE,Charter,School,40 IRVING PLACE,10003,-73.987544,40.735491
2177,YORKVILLE EAST MIDDLE SCHOOL,Public,School,1458 YORK AVENUE,10075,-73.951045,40.770381
2183,PS 183,Public,School,419 EAST 66TH STREET,10021,-73.958118,40.763809
2198,PS 198,Public,School,1700 3RD AVENUE,10128,-73.949701,40.784861
2217,IS 217,Public,School,"645 MAIN STREET, ROOSEVELT ISLAND",10044,-73.948001,40.763936
2260,THE CLINTON SCH WRITERS-ARTIST,Public,School,10 EAST 15TH STREET,10003,-73.992792,40.736457
2267,PS 267,Public,School,213 EAST 63RD STREET,10065,-73.964187,40.763915
2280,MAN EARLY COLL SCH FOR ADV.,Public,School,411 PEARL STREET,10038,-74.00095,40.711428
2281,PS 281 THE RIVER SCHOOL,Public,School,425 EAST 35TH STREET,10016,-73.972541,40.744347
2282,URBAN ASSEMBLY MAKER ACADEMY,Public,School,411 PEARL STREET,10038,-74.00095,40.711428
2289,IS 289,Public,School,201 WARREN STREET,10282,-74.013502,40.716552
2300,VANGUARD HS,Public,School,317 E 67 ST,10021,-73.96002,40.765429
2305,URBAN ASSEMBLY GOVERN. & LAW,Public,School,350 GRAND STREET,10002,-73.989303,40.71685
2308,LOWER MANHATTAN ARTS ACADEMY,Public,School,350 GRAND STREET,10002,-73.989303,40.71685
2310,P138M @ PARK WEST HS,Public,School,525 West 50th Street,10019,-73.992634,40.765137
2312,NEW YORK CITY LAB JHS,Public,School,333 WEST 17TH STREET,10011,-74.002125,40.742184
2313,THE JAMES BALDWIN HS,Public,School,351 WEST 18TH STREET,10011,-74.002069,40.742925
2316,URBAN ASSEMBLY BUS YOUNG WOMEN,Public,School,81 NEW STREET,10004,-74.012619,40.705264
2325,PS 234(INDEPENDENCE SCHOOL),Public,School,292 GREENWICH STREET,10007,-74.011136,40.716022
2340,SIXTH AVENUE ELEMENTARY SCH,Public,School,590 AVENUE OF THE AMERICAS,10011,-73.995443,40.739102
2343,THE PECK SLIP SCHOOL,Public,School,1 PECK SLIP,10019,-74.002328,40.708806
2347,THE ASL & ENGLISH LOWER SCH,Public,School,223 EAST 23RD STREET,10010,-73.982421,40.738622
2350,H.S. OF ECONOMICS & FINANCE,Public,School,100 TRINITY PLACE,10006,-74.012111,40.70923
2351,SUCCESS ACAD HS LIBERAL ARTS,Charter,School,111 EAST 33RD STREET,10016,-73.981243,40.746266
2358,MANHATTAN VILLAGE ACADEMY,Public,School,43 WEST 22 STREET,10010,-73.991466,40.741563
2360,MANHATTAN INTERNATIONAL HS,Public,School,317 EAST 67 STREET,10021,-73.96002,40.765429
2365,LANDMARK HIGH SCHOOL,Public,School,351 WEST 18TH STREET,10019,-74.002069,40.742925
2370,H.S. FOR LEADERSHIP & PUBL.SER,Public,School,90 TRINITY PLACE,10006,-74.012452,40.708719
2374,GRAMMERCY ARTS HS,Public,School,40 IRVING PLACE,10003,-73.987544,40.735491
2376,NYCi SCHOOL,Public,School,131 AVE OF THE AMERICAS,10013,-74.004837,40.724371
2378,INSTITUTE FOR COLLABORATIVE ED,Public,School,345 EAST 15 ST,10003,-73.982996,40.732519
2380,HEALTH PROF & HUMAN SER. HS,Public,School,345 EAST 15 STREET,10003,-73.982996,40.732519
2392,MANHATTAN BUSINESS ACADEMY,Public,School,351 WEST 18TH STREET,10011,-74.002069,40.742925
2393,THE BUSINESS OF SPORTS SCHOOL,Public,School,439 WEST 49TH STREET,10019,-73.990541,40.763436
2394,EMMA LAZARUS HS,Public,School,100 HESTER STREET,10002,-73.993126,40.71648
2397,SPRUCE STREET SCHOOL,Public,School,12 SPRUCE STREET,10038,-74.005557,40.71127
2398,PS 276 BATTERY PARK CITY SCH,Public,School,55 BATTERY PLACE,10280,-74.017723,40.706408
2399,HS FOR LANGUAGE & DIPLOMACY,Public,School,40 IRVING PLACE,10003,-73.987544,40.735491
2408,PASSAGES ACADEMY (MAN),Public,School,346 BROADWAY - 6TH FL.,10011,-74.004079,40.716653
2414,P094M @ P 51,Public,School,525 WEST 44TH STREET,10036,-73.995759,40.761541
2418,BALLET TECH,Public,School,890 BROADWAY,10003,-73.989815,40.738574
2419,TALENT UNLIMITED HIGH SCHOOL,Public,School,300 EAST 68TH STREET,10021,-73.959933,40.766016
2420,OFFICE OF COOPERATIVE ED,Public,Office,439 WEST 49TH STREET,10019,-73.990541,40.763436
2431,P721M @ STUYVESANT HS,Public,School,345 CHAMBERS STREET,10282,-74.013634,40.717627
2432,M.S. 114 EAST SIDE MS,Public,School,331 EAST 91 STREET,10128,-73.948513,40.780777
2436,SCHOOL OF THE FUTURE,Public,School,127 EAST 22 STREET,10010,-73.985439,40.739024
2439,PS 723 AT CUNY,Other Religion,School,33 WEST 42 STREET,10036,-73.982029,40.754059
2441,ABC-MERRICAT'S CASTLE SCH,Nonsectarian,School,316 EAST 88 STREET,10128,-73.950231,40.778846
2442,P226M @ HLTH PROF. & HUM SERV.,Public,School,345 EAST 15 STREET ROOM 202,10003,-73.982996,40.732519
2444,P226M @ JULIA RICHMAN HS,Public,School,317 EAST 67 STREET,10021,-73.96002,40.765429
2452,PUBLIC SCHOOL REPERTORY COM.,Public,School,123 WEST 43 STREET,10036,-73.98433,40.75591
2454,COOKE CTR.@ OUR LADY OF POMPEI,Nonsectarian,School,240 BLEEKER ST,10014,-74.002746,40.730584
2455,N.Y.C. LAB SCHOOL AT PS 198,Public,School,1700 THIRD AVENUE,10128,-73.949701,40.784861
2461,SATELLITE ACADEMY HS,Public,School,120 WEST 30TH STREET,10001,-73.990495,40.747548
2462,HARVEY MILK HIGH SCHOOL,Public,School,2 ASTOR PLACE,10003,-73.992652,40.729963
2465,NEW YORK CITY LAB HS,Public,School,333 WEST 17 STREET,10011,-74.002125,40.742184
2466,THE LIGHTHOUSE CHILD DEV CTR,Nonsectarian,School,111 EAST 59 STREET,10022,-73.969139,40.76273
2482,CLINTON FAMILY RESIDENCE  STH,Public,Office,521 WEST 49TH STREET,10038,-73.993435,40.764655
2483,PROF. PERFORMING ARTS SCHOOL,Public,School,328 WEST 48 STREET,10036,-73.988066,40.761382
2484,P401M @ NY FOUNDLING HOSPITAL,Public,School,590 AVENUE OF THE AMERICAS,10011,-73.995443,40.739102
2488,UNITY H.S.,Public,School,111 EAST 33RD STREET  7TH FL,10016,-73.981243,40.746266
2490,P226M @ STUYVESANT HS,Public,School,345 CHAMBERS STREET,10028,-74.013634,40.717627
2491,COOPER UNION SCH OF ENGINEER,Public,Office,41 COOPER SQUARE,10003,-73.99067,40.728322
2492,PS 212,Public,School,328 WEST 48 STREET,10036,-73.988066,40.761382
2494,PS 290 MANHATTAN NEW SCHOOL,Public,School,311 EAST 82 STREET,10028,-73.953054,40.775146
2495,NYC MUSEUM SCHOOL,Public,School,333 WEST 17 STREET,10011,-74.002125,40.742184
2497,RE-START,Public,School,448 WEST 56 STREET,10019,-73.987652,40.767755
2503,BROOME STREET ACAD CHARTER HS,Charter,School,555 BROOME STREET,10013,-74.005638,40.724275
2504,URBAN ASSEMBLY GATEWAY TECH,Public,School,439 WEST 49TH STREET,10019,-73.990541,40.763436
2506,NORMAN THOMAS SHELTER,Nonsectarian,School,111 EAST 33RD ST,10016,-73.981243,40.746266
2507,LIBERTY HS ACAD FOR NEWCOMMERS,Public,School,250 WEST 18 STREET,10011,-73.999336,40.741581
2514,HS OF HOSPITALITY MANAGEMENT,Public,School,525 WEST 50TH STREET,10019,-73.992634,40.765137
2515,P721M @ CHELSEA HS,Public,School,131 AVENUE OF AMERICAS,10013,-74.004837,40.724371
2516,UNIVERSITY NEIGHBORHOOD H.S.,Public,School,200 MONROE STREET,10002,-73.984489,40.712323
2519,STUYVESANT HS,Public,School,345 CHAMBERS STREET,10282,-74.013634,40.717627
2524,THE HIGH SCHOOL OF TEACHING,Public,School,26 BROADWAY,10004,-74.013205,40.705667
2525,CHELSEA VOCATIONAL HS,Public,School,131 AVENUE OF THE AMERICAS,10013,-74.004837,40.724371
2526,PS 527,Public,School,323 EAST 91ST STREET,10128,-73.948654,40.780837
2527,M.S. 260 Clinton School,Public,School,10 EAST 15TH STREET,10003,-73.992792,40.736457
2530,HARVEST COLLEGIATE HS,Public,School,34 WEST 14TH STREET,10011,-73.994895,40.736446
2531,HS OF ART & DESIGN,Public,School,233 EAST 56TH STREET,10022,-73.967141,40.759303
2532,UNION SQUARE ACAD HEALTH SCI,Public,School,40 IRVING PLACE  ROOM 501,10003,-73.987544,40.735491
2533,HS OF FASHION INDUSTRIES,Public,School,225 WEST 24TH STREET,10011,-73.996018,40.745218
2537,SCH OF COOPERATIVE TECH EDUC,Public,School,321 EAST 96TH STREET,10128,-73.946336,40.784024
2538,H.S. OF ENVIRONMENTAL STUDIES,Public,School,444 WEST 56 STREET,10019,-73.987567,40.767719
2542,MANHATTAN BRIDGES HS,Public,School,525 WEST 50TH STREET,10019,-73.992634,40.765137
2543,ACAD FOR SOFTWARE ENGINEERING,Public,School,40 IRVING PLACE,10003,-73.987544,40.735491
2544,INDEPENDENCE HS WESTEND CAMPUS,Public,School,850 TENTH AVENUE,10019,-73.989022,40.768305
2545,JACQUELINE KENNEDY ONASIS H.S,Public,School,120 WEST 46 STREET,10036,-73.98313,40.757661
2546,MURRY BERGTRAUM HS,Public,School,411 PEARL STREET,10038,-74.00095,40.711428
2549,P2G @ THE DOOR,Public,School,121 6TH AVENUE,10013,-74.004788,40.723923
2551,NEW DESIGN HS,Public,School,350 GRAND STREET,10002,-73.989303,40.71685
2554,ECOLE INTERNATIONALE DE NY,Nonsectarian,School,111 EAST 22ND STREET,10010,-73.985972,40.739249
2555,MANHATTAN COMP NIGHT H.S.,Public,School,240 SECOND AVENUE,10003,-73.984579,40.732669
2561,URBAN ACADEMY LABORATORY HS,Public,School,317 EAST 67TH STREET,10021,-73.96002,40.765429
2563,ELEANOR ROOSEVELT HIGH SCHOOL,Public,School,411 EAST 76TH STREET,10011,-73.953563,40.770255
2564,P2G @ STANLEY ISAACS NEIGH CTR,Public,School,1792 First Avenue,10128,-73.946242,40.781149
2565,P2G @ CHELSEA HUDSON GUILD,Public,School,443-447 WEST 25 ST,10001,-74.001621,40.748384
2566,P138M @ P033M,Public,School,281 NINTH AVE,10001,-73.999738,40.748849
2568,THE GILLEN BREWER SCHOOL,Nonsectarian,School,410 EAST 92ND STREET,10128,-73.946154,40.780413
2569,P2G- THE DOOR,Public,School,121 6TH AVENUE,10012,-74.004788,40.723923
2571,OFF.OF FITNESS & HEALTH EDUC,Public,Office,52 CHAMBERS STREET ROOM 209,10007,-74.005623,40.713747
2573,P2G-DOOR ART ACCESS-,Public,School,121 6TH AVENUE,10012,-74.004788,40.723923
2574,JOHN V. LINDSAY WILDCAT ACAD.,Charter,School,17 BATTERY PLACE,10004,-74.01615,40.705128
2580,THE ELLA BAKER SCHOOL,Public,School,317 EAST 67 STREET,10021,-73.96002,40.765429
2582,HUMANITIES PREP. SCHOOL,Public,School,351 WEST 18 STREET,10011,-74.002069,40.742925
2583,OFF OF ENGLISH LANG LEARNERS,Public,Office,52 CHAMBERS STREET  ROOM 220,10007,-74.005623,40.713747
2586,P2G @ 29 ST,Public,School,40 EAST 29TH STREET,10016,-73.98483,40.744356
2587,Y.A.B.C.@ WASHINGTON IRVING HS,Public,School,40 IRVING PLACE,10003,-73.987544,40.735491
2589,MILLENNIUM TRIBECA HS,Public,School,75 BROAD STREET  13TH FLOOR,10004,-74.011452,40.704485
2590,LOWER MANHATTAN COMMUNITY SCH,Public,School,26 BROADWAY 6TH FLOOR,10010,-74.013205,40.705667
2596,URBAN ASSEMBLY OF DESIGN CONST,Public,School,525 WEST 50TH STREET,10019,-73.992634,40.765137
2601,P169M @ PS 59,Public,School,233 EAST 56TH STREET,10022,-73.967141,40.759303
2605,P035M @ MANHATTAN SCHOOL,Public,School,317 WEST 52 STREET,10019,-73.985876,40.763928
2606,P721M @ LEGACY HS,Public,School,34 WEST 14 STREET,10011,-73.994895,40.736446
2609,OFFICE OF SCHOOL QUALITY,Public,Office,52 CHAMBERS STREET  ROOM 310,10007,-74.005623,40.713747
2611,Keswell School,Nonsectarian,School,331 WEST 25 STREET,10001,-73.998442,40.747049
2612,HS FOR DUAL LANG.& ASIAN STUDY,Public,School,350 GRAND STREET  5TH FLOOR,10002,-73.989303,40.71685
2539,SOS,Public,School,121 6TH AVENUE,10013,-74.004788,40.723923
2541,HS OF GRAPHIC COMM ARTS,Public,School,439 WEST 49TH STREET,10019,-73.990541,40.763436
2613,P751M@ HUMANTIES PREPARATORY,Public,School,351 WEST 18TH STREET,10011,-74.002069,40.742925
2615,LA SCUOLA D'ITALIA G.MARCONI,Nonsectarian,School,406 EAST 67TH STREET,10021,-73.95795,40.764362
2616,P751M @ HUNTER COLLEGE,Public,School,695 PARK AVENUE  12TH FLOOR,10010,-73.96517,40.768888
2622,A.M.A.C. INC-SECONDARY,Other Religion,School,25 WEST 17 STREET,10011,-73.993202,40.738425
2623,P751M @ BARUCH COLLEGE,Public,School,137 EAST 25 STREET,10016,-73.983421,40.740723
2624,P751M @ GOODWILL,Public,School,220 EAST 23RD STREET,10010,-73.982552,40.738483
2625,P751M @ V.A. HOSPITAL,Public,School,423 EAST 23RD STREET  FIRST FLOOR,10010,-73.977644,40.736608
2628,OFFICE SCHOOL PROGRAMS,Public,Office,52 CHAMBERS STREET  ROOM 205,10007,-74.005623,40.713747
2629,P402X@ NY PREBYTERIAN HOSP,Public,School,525 EAST 68TH STREET 11TH FLOOR,10021,-73.955205,40.764218
2631,ROSIE'S BROADWAY KIDS DOE    S,Public,Office,445 WEST 45TH STREET,10036,-73.992482,40.760979
2632,HAWTHORNE COUNTRY DAY SCHOOL,Nonsectarian,School,156 WILLIAM STREET,10038,-74.005929,40.709933
2633,CUNY-COLLEGE NOW             S,Public,Office,101 WEST 31ST STREET  14TH FLOOR,10001,-73.989538,40.74815
2634,OFF OF SAFETY & YOUTH DEVELOP,Public,Office,52 CHAMBERS STREET  ROOM 218,10007,-74.005623,40.713747
2635,THE SPENCE SCHOOL,Nonsectarian,School,56 EAST 93RD STREET,10128,-73.955084,40.784995
2639,CASSIDY'S PLACE,Nonsectarian,School,419 EAST 86TH STREET,10028,-73.948712,40.776695
2641,HUNTINGTON LRNG CTR(IMPARITAL),Nonsectarian,School,1556 THIRD AVENUE  ROOM 209,10128,-73.953402,40.779795
2644,D-75 OFFICE OF HOME SCHOOLING,Public,Office,400 FIRST AVE  ROOM 717,10010,-73.978214,40.73707
2645,THE TRANSFIGURATION KDRG.SCH.,Nonsectarian,School,10 CONFUCIUS PLAZA,10002,-73.997487,40.714005
2646,FOOD AND FINANCE HS,Public,School,525 WEST 50TH STREET,10019,-73.992634,40.765137
2650,MS 255 SALK SCHOOL OF SCIENCE,Public,School,320 EAST 20TH STREET FOURTH FLOOR,10003,-73.98172,40.735692
2652,PACE HIGH SCHOOL,Public,School,100 HESTER STREET,10002,-73.993126,40.71648
2654,COOKE CENTER ACADEMY,Nonsectarian,School,60 MACDOUGAL STREET,10012,-74.002331,40.72766
2655,CHILD SCH M.S. PATTERSON BLDG,Nonsectarian,School,537 MAIN STREET,10044,-73.950051,40.761661
2656,CLARKE NYC AUDITORY SCHOOL,Nonsectarian,School,80 EAST END AVENUE,10028,-73.94619,40.773166
2657,P2G @ MANHATTAN LRNG CTR,Public,School,317 WEST 52 STREET,10019,-73.985876,40.763928
2658,NOTRE DAME SCHOOL,Parochial,School,327 WEST 13TH STREET,10014,-74.004239,40.739674
2661,P751M @ FASHION INDUSTRIES HS,Public,School,225 WEST 24TH STREET,10011,-73.996018,40.745218
2664,P751M @ ICD,Public,School,340 EAST 24 STREET,10010,-73.978772,40.737761
2665,SPECIAL EDUCATION INITIATIVES,Public,Office,52 CHAMBERS STREET ROOM 220,10007,-74.005623,40.713747
2666,RABBI ARTHUR SCHNEIER PK EA DA,Yeshiva,School,164 EAST 68TH STREET,10065,-73.963408,40.767482
2667,CHILD SCHOOL- HS EASTWOOD BLDG,Nonsectarian,School,566 MAIN STREET,10044,-73.949274,40.762602
2668,P226M @ MILLENNIUM HS,Public,School,75 BROAD STREET,10004,-74.011452,40.704485
2669,P169M @ METROPOLITAN HOSPITAL,Public,School,1900 2ND AVENUE-8 FLOOR SOUTH,10029,-73.945999,40.785577
2677,P138M @ SCHOOL OF THE FUTURE,Public,School,127 EAST 22 STREET,10010,-73.985439,40.739024
2685,P751M @ NYU FED CAP-SCH CAR,Public,School,119 WEST 19 STREET,10011,-73.995306,40.74084
2686,OFFICE OF HOME SCHOOLING,Public,Office,52 CHAMBERS STREET,10007,-74.005623,40.713747
2687,ACAD OF INFO-TECHNOLOGY TWEED,Public,Office,52 CHAMBERS STREET  ROOM 209,10007,-74.005623,40.713747
2688,P401M@ INTL.CTR FOR THE DIS.,Public,School,340 EAST 24TH STREET,10010,-73.978772,40.737761
2691,P138M @ JHS 47,Public,School,223 EAST 23RD STREET,10010,-73.982421,40.738622
2692,BRITISH INTERNATIONAL SCH.N.Y.,Nonsectarian,School,20 WATERSIDE PLAZA,10010,-73.974,40.737201
2696,ALTERNATE LEARNING CENTERS,Public,Office,52 CHAMBERS STREET   ROOM 218,10007,-74.005623,40.713747
2697,LINDAMOOD BELL LRNG (IMPARTIAL,Nonsectarian,School,110 E. 55th STREET,10021,-73.971043,40.759938
2699,LEARNING SPRING ELEM SCHOOL,Nonsectarian,School,247 EAST 20TH STREET,10003,-73.98312,40.736476
2701,CITY AS SCHOOL,Public,School,16 CLARKSON STREET,10014,-74.006146,40.729333
2706,LA SCUOLA NEW YORK 'G.MARCONI',Nonsectarian,School,12 EAST 96 STREET,10128,-73.955268,40.7876
2707,EAST MANHATTAN SCHOOL,Nonsectarian,School,31-35 WEST 15TH STREET,10011,-73.994224,40.737252
2710,LYCEUM KENNEDY FRENCH SCHOOL,Nonsectarian,School,225 EAST 43 ST,10017,-73.973187,40.751213
2711,CONVENT SACRED HEART SCH,Parochial,School,1 EAST 91ST STREET,10128,-73.957802,40.784691
2714,MANHATTAN H.S FOR GIRLS,Yeshiva,School,154 EAST 70 STREET,10021,-73.962719,40.76883
2715,NYCTA-FARE MEDIA PROGRAMS,Nonsectarian,Office,2 BROADWAY    D11.45,10004,-74.013088,40.704129
2716,OFF OF SCHOOL SAFETY-PBIS-SEL,Public,Office,400 1ST AVENUE  3RD FLOOR,10010,-73.978214,40.73707
2717,SACRED HEART JESUS SCH,Parochial,School,456 WEST 52ND STREET,10019,-73.98965,40.765321
2721,P721M @ MANHATTAN OTC,Public,School,250 WEST HOUSTON STREET,10014,-74.005975,40.728752
2725,ST STEPHEN OF HUNGARY SCHOOL,Parochial,School,408 EAST 82ND STREET,10028,-73.950866,40.774028
2727,TRANSFIGURATION LOWER SCHOOL,Parochial,School,29 MOTT STREET,10013,-73.998938,40.714714
2728,GUARDIAN ANGEL SCHOOL,Parochial,School,193 10TH AVENUE,10011,-74.004978,40.746754
2730,MONTESSORI SCH. OF NEW YORK,Nonsectarian,School,347 EAST 55TH STREET,10022,-73.965073,40.757613
2732,XAVIER HIGH SCHOOL,Parochial,School,30 WEST 16TH STREET,10011,-73.993834,40.73773
2733,NYC-DOE CENTRAL-,Public,Office,52 CHAMBERS STREET   ROOM 108,10007,-74.005623,40.713747
2734,THE LANG SCHOOL,Nonsectarian,School,11 BROADWAY  3RD FLOOR,10004,-74.013764,40.705454
2735,ACADEMY OF ST JOSEPH,Parochial,School,111 WASHINGTON PLACE,10014,-74.00098,40.732646
2737,MESIVTHA TIFERETH JRSLM AMER,Yeshiva,School,145 EAST BROADWAY,10002,-73.991165,40.713883
2740,BOROUGH OF MANHATTAN COMM COLL,Public,Office,199 CHAMBERS STREET,10007,-74.012063,40.716903
2744,CITY KNOLL MIDDLE SCHOOL,Public,School,425 WEST 33RD STREET,10001,-73.99764,40.753091
2748,GRACE CHURCH SCHOOL,Christian,School,86 4TH AVENUE,10003,-73.990406,40.731678
2750,THE FAMILY SCHOOL,Nonsectarian,School,323 EAST 47TH STREET,10017,-73.969175,40.752785
2751,RAMAZ LOWER SCHOOL,Yeshiva,School,125 EAST 85TH STREET,10028,-73.956677,40.779161
2753,PHILOSOPHY DAY SCHOOL,Nonsectarian,School,12 EAST 79 ST,10021,-73.96314,40.776658
2756,MARYMOUNT SCHOOL OF NY,Parochial,School,1026 5TH AVENUE,10028,-73.961426,40.779975
2760,EPIPHANY LOWER SCHOOL,Parochial,School,234 EAST 22ND STREET,10010,-73.982812,40.737723
2761,P094M @ PS 126 CHINATOWN YMCA,Public,School,80 CATHERINE STREET,10038,-73.996841,40.711174
2764,RAMAZ UPPER SCHOOL,Yeshiva,School,60 EAST 78TH STREET,10021,-73.962032,40.775291
2765,OUR LADY OF POMPEI SCH,Parochial,School,240 BLEECKER STREET,10014,-74.002746,40.730584
2770,CATHEDRAL ELEMENTARY SCH,Nonsectarian,School,319 EAST 74TH STREET,10021,-73.956711,40.769925
2771,ST BERNARD'S SCH INC,Nonsectarian,School,4 EAST 98TH STREET,10029,-73.954583,40.78901
2773,CORLEARS SCHOOL,Nonsectarian,School,324 WEST 15TH STREET,10011,-74.002982,40.740752
2775,ST DAVID'S SCHOOL,Parochial,School,12 EAST 89TH STREET,10128,-73.958451,40.783136
2776,ST IGNATIUS LOYOLA SCH,Parochial,School,48 EAST 84 STREET,10028,-73.959362,40.779271
2777,THE BLUE SCHOOL,Nonsectarian,School,241 WATER STREET,10038,-74.002347,40.707949
2778,ST JOSEPH OF YORKVILLE,Parochial,School,420 EAST 87TH STREET,10128,-73.948282,40.777204
2779,ST JEAN BAPTISTE HS,Parochial,School,173 EAST 75TH STREET,10021,-73.959849,40.772075
2780,ST LUKES SCHOOL,Christian,School,487 HUDSON STREET,10014,-74.006599,40.732529
2783,ST VINCENT FERRER HS,Parochial,School,151 EAST 65TH STREET,10021,-73.964911,40.765856
2785,EPIPHANY UPPER SCHOOL,Parochial,School,141 EAST 28 STREET,10016,-73.982002,40.742552
2787,OFFICE OF ASSESSMENT,Public,Office,52 CHAMBERS STREET  ROOM 309,10007,-74.005623,40.713747
2789,MANHATTAN COUNTRY SCHOOL,Nonsectarian,School,150 West 85th Street,10025,-73.974119,40.786407
2790,OFF OF EARLY CHILDHOOD EDUC,Public,Office,52 CHAMBERS STREET  ROOM 413,10007,-74.005623,40.713747
2791,CATHEDRAL HS,Parochial,School,350 EAST 56TH STREET,10022,-73.964651,40.758061
2793,DOMINICAN ACADEMY,Parochial,School,44 EAST 68TH STREET,10021,-73.966923,40.768964
2795,ALC @ BOWLING GREEN,Public,School,50 BROADWAY 12TH FLOOR,10004,-74.012675,40.706407
2798,Off. of Senior Dep Chancellor,Public,Office,52 CHAMBERS ST  ROOM 320,10007,-74.005623,40.713747
2799,P094M @ PS 281,Public,School,425 EAST 35TH STREET,10016,-73.972541,40.744347
2801,OFFICE OF POLICY RESEARCH,Public,Office,52 CHAMBERS STREET   ROOM 309,10007,-74.005623,40.713747
2802,CFN # 106,Public,Office,333 7TH AVENUE   ROOM 707,10001,-73.992951,40.747621
2806,P035M @RIVERVIEW SCH@BELLEVUE,Public,School,462 FIRST AV,10016,-73.976536,40.739461
2808,FRIENDS SEMINARY SCH,Christian,School,222 EAST 16TH STREET,10003,-73.985836,40.734362
2809,HEWITT SCHOOL,Nonsectarian,School,45 EAST 75TH STREET,10021,-73.963477,40.773605
2811,P094M @ PS 397,Public,School,12 SPRUCE STREET,10038,-74.005557,40.71127
2814,P226M @ MANHATTAN SCHOOL,Public,School,12 WEST 12TH STREET,10011,-73.995347,40.734897
2816,HUNTER COLLEGE HS,Nonsectarian,School,71 EAST 94TH STREET,10128,-73.95428,40.785671
2818,ISLAMIC CULTURAL CTR SCHOOL,Other Religion,School,222 EAST 97TH STREET,10029,-73.947803,40.785354
2820,REGIS HS,Parochial,School,55 EAST 84TH STREET,10028,-73.959089,40.77935
2821,P094M @ PS 340,Public,School,590 AVENUE OF THE AMERICAS,10011,-73.995443,40.739102
2822,TRANSFIGURATION UPPER SCHOOL,Parochial,School,37 ST.JAMES PLACE,10038,-73.999141,40.712203
2824,THE DALTON SCHOOL,Nonsectarian,School,108 EAST 89 STREET,10128,-73.955284,40.7818
2825,ELISABETH IRWIN HS,Nonsectarian,School,40 CHARLTON STREET,10014,-74.004802,40.727
2826,THE DALTON SCHOOL-ANNEX,Nonsectarian,School,53-61 EAST 91 STREET,10128,-73.955894,40.78389
2830,THE BEEKMAN SCHOOL,Nonsectarian,School,220 EAST 50TH STREET,10022,-73.970165,40.755477
2833,Q345 @ DIV OF EQUITY & ACCESS,Public,Office,52 CHAMBERS STREET ROOM 319,10007,-74.005623,40.713747
2835,HUNTER COLLEGE ELEM SCH,Nonsectarian,School,71 EAST 94 STREET,10128,-73.95428,40.785671
2837,NIGHTINGALE BAMFORD SCH,Nonsectarian,School,20 EAST 92ND STREET,10128,-73.956888,40.784933
2840,RUDOLF STEINER SCHOOL,Nonsectarian,School,15 EAST 79TH STREET,10021,-73.96295,40.776773
2841,THE SPENCE SCHOOL,Nonsectarian,School,22 EAST 91ST STREET,10128,-73.95725,40.784267
2843,TOWN SCHOOL INC,Nonsectarian,School,540 EAST 76TH STREET,10021,-73.950908,40.768946
2844,UN INTERNATIONAL SCH,Nonsectarian,School,24-50 FRANKLIN D. ROOSEVELT DRIVE,10010,-73.974437,40.736533
2846,VILLAGE COMMUNITY SCH,Nonsectarian,School,272 WEST 10TH STREET,10014,-74.007867,40.733422
2850,LITTLE RED SCHOOLHOUSE,Nonsectarian,School,196 BLEECKER ST,10012,-74.001613,40.72927
2855,LOYOLA HS,Parochial,School,980 PARK AVENUE N.Y.,10028,-73.958692,40.778503
2862,HOSPITALS SCHOOLS @ ICD HOSP,Public,Office,50 BROADWAY,10004,-74.012675,40.706407
2866,THE ARK NURSY AND KNDG SCH,Nonsectarian,School,12 EAST 79TH STREET,10021,-73.96314,40.776658
2870,THE ALLEN STEVENSON SCHOOL,Nonsectarian,School,132 EAST 78TH STREET,10021,-73.959932,40.774406
2871,RAMAZ MIDDLE SCHOOL,Yeshiva,School,114 EAST 85TH STREET,10028,-73.957056,40.779127
11002,PS 483,Public,School,4520 MATILDA AVENUE,10470,-73.8544,40.901428
2872,Winston Preparatory School,Nonsectarian,School,126 WEST 17 STREET,10011,-73.996437,40.739592
2875,BARUCH COLLEGE CAMPUS HS,Public,School,55 EAST 25TH STREET,10010,-73.986485,40.742003
2876,BIRCH WATHEN LENOX LOWER SCH,Nonsectarian,School,210 EAST 77 STREET,10075,-73.957817,40.772683
2877,NYC LAW DEPART GEN.LITIGATION,Nonsectarian,Office,100 CHURCH ST ROOM 2-195,10007,-74.00958,40.713006
2878,BREARLEY SCHOOL,Nonsectarian,School,610 EAST 83RD STREET,10028,-73.946014,40.772811
2880,THE BROWNING SCHOOL,Nonsectarian,School,52 EAST 62ND STREET,10021,-73.96954,40.765159
2881,WINSTON PREP @ COOKE CTR,Nonsectarian,School,252 WEST 29TH STREET 4TH FLOOR,10001,-73.994439,40.748403
2882,BUCKLEY SCHOOL,Nonsectarian,School,113 EAST 73RD STREET,10021,-73.962604,40.77158
2884,THE CAEDMON SCHOOL,Nonsectarian,School,416 EAST 80TH STREET,10021,-73.951371,40.77258
2885,HOME INSTR.SCHOOL- MANHATTAN,Public,School,250 WEST HOUSTON STREET,10014,-74.005975,40.728752
2886,CHAPIN SCHOOL,Nonsectarian,School,100 EAST END AVENUE,10028,-73.945725,40.773801
2888,MANHATTAN BOROUGH OFFICE STH,Public,Office,333 7TH AVENUE,10001,-73.992951,40.747621
2890,CITY & COUNTRY SCHOOL,Nonsectarian,School,146 WEST 13TH STREET,10011,-73.99873,40.737156
2894,TREVOR DAY SCHOOL,Nonsectarian,School,4 EAST 90TH STREET,10128,-73.958307,40.783895
2897,MT SINAI SCH OF MEDICINE   S,Other Religion,School,ONE GUSTAVE L.LEVY PLACE,10029,-73.953748,40.79051
2899,A.M.A.C. INC-ELEM,Nonsectarian,School,25 WEST 17TH STREET,10011,-73.993202,40.738425
2900,THE SPEYER LEGACY SCHOOL,Nonsectarian,School,400 WEST 59TH STREET,10019,-73.985244,40.769329
2908,CHILD SCHOOL ELEM-WESTVIEW,Nonsectarian,School,587 MAIN STREET,10044,-73.949394,40.762802
2909,CHURCHILL SCHOOL,Nonsectarian,School,301 EAST 29TH STREET,10016,-73.97774,40.741559
2911,LORGE SCHOOL,Nonsectarian,School,353 WEST 17TH STREET,10011,-74.002551,40.742363
2912,DIVISION FOR FAMILY,Public,Office,49 CHAMBERS STREET  ROOM 503,10007,-74.005371,40.71383
2913,THE COLLEGE BRIDGE,Public,Office,269 WEST 35TH STREET,10018,-73.991871,40.752486
2914,UNITED CEREBRAL PALSY,Nonsectarian,School,122 EAST 23RD STREET,10010,-73.985373,40.739677
2915,UNITED CEREBRAL PALSY(ANNEX),Nonsectarian,School,309 WEST 23RD STREET,10025,-73.998999,40.745607
2916,ALL CITY MUSIC PROG DOE-PO'S,Public,Office,52 CHAMBERS STREET  ROOM 210,10007,-74.005623,40.713747
2918,CHILDREN'S ACADEMY,Nonsectarian,School,350 EAST 82ND STREET 2ND FLOOR,10028,-73.952499,40.774717
2921,AVENUES OF NEW YORK,Nonsectarian,School,259 10TH AVENUE,10003,-74.003235,40.749151
2922,GRACE CHURCH HS,Nonsectarian,School,38 COOPER SQUARE,10003,-73.99131,40.728327
2924,OFFICE OF CURRICULUM & P.D.,Public,Office,52 CHAMBERS STREET  ROOM 209,10007,-74.005623,40.713747
2927,INTERNATIONAL HS AT UNION SQ,Public,School,40 IRVING PLACE,10003,-73.987544,40.735491
2930,The Rebecca School,Nonsectarian,School,40 East 30 Street,10016,-73.984412,40.744986
2934,P2G @ ALT EDUC COMPLEX/HUB,Public,School,269 WEST 35TH STREET,10018,-73.991871,40.752486
2935,CFN # 411,Public,Office,333 7TH AVENUE 12TH FLOOR,10002,-73.992951,40.747621
2936,CFN # 408,Public,Office,333 7TH AVENUE  SUITE 807,10002,-73.992951,40.747621
2937,MANHATTAN FIELD SUPPORT CTR,Public,Office,333 7TH AVENUE ROOM 831,10002,-73.992951,40.747621
2938,CFN # 511,Public,Office,333 7TH AVENUE   8TH FLOOR,10002,-73.992951,40.747621
2939,CFN # 101,Public,Office,333 7TH AVENUE    7TH FLOOR,10001,-73.992951,40.747621
2940,CFN # 102,Public,Office,333 7TH AVNUE  7TH FLOOR,10002,-73.992951,40.747621
2941,OFF.OF TRAVEL TRAINING DIST 75,Public,Office,400 FIRST AVENUE,10010,-73.978214,40.73707
2942,SCHOOL WELLNESS PROGRAMS,Public,Office,52 CHAMBERS STREET   ROOM 209,10007,-74.005623,40.713747
2945,O.F.E.A.,Public,Office,49 CHAMBERS STREET  ROOM 503,10007,-74.005371,40.71383
2946,LYFE PROGRAM OFFICE,Public,Office,500 8TH AVENUE  ROOM 1004,10018,-73.992814,40.752905
2947,DIVISION OF SCHOOL SUPPORT,Public,Office,52 CHAMBERS STREET  ROOM 319,,-74.005623,40.713747
2948,CHILD SCH HS -ISLAND HOUSE,Nonsectarian,School,585 MAIN STREET,10044,-73.9494,40.762792
2950,P2G@THE HAMPHIRE SCHOOL,Public,School,157 WEST 47 STREET,10036,-73.983303,40.758747
2954,P2G-ALT ED COMP,Public,School,500 EIGHTH AVENUE,10018,-73.992814,40.752905
2955,CFN # 521,Public,Office,333 7TH AVENUE  8TH FLOOR,10002,-73.992951,40.747621
2956,CFN # 532,Public,Office,333 7TH AVENUE   ROOM 834,10002,-73.992951,40.747621
2957,P2G @ CO-OP TECH,Public,School,321 EAST 96TH STREET,10128,-73.946336,40.784024
2958,CFN # 561,Public,Office,333 7TH AVENUE,10002,-73.992951,40.747621
2959,CFN # 203,Public,Office,333 7TH AVENUE  12TH FLOOR,10002,-73.992951,40.747621
2960,MARYMOUNT SCH OF NY 97TH ST,Other Religion,School,116 EAST 97TH STREET,10029,-73.951336,40.786822
2961,CSE 9,Public,Office,333 7TH AVENUE 4TH FLOOR,10001,-73.992951,40.747621
2962,OFFICE OF STUDENT ENROLLMENT,Public,Office,52 CHAMBERS STREET  ROOM 414,10007,-74.005623,40.713747
2963,THE HEWITT SCHOOL,Nonsectarian,School,3 EAST 76TH STREET,10021,-73.964791,40.774991
2964,LEMAN MANHATTAN PREP SCHOOL,Nonsectarian,School,41 BROAD STREET,10004,-74.011346,40.705575
2965,MAN ACAD FOR ARTS & LANGUAGE,Public,School,111 EAST 33RD STREET,10016,-73.981243,40.746266
2966,MURRAY HILL ACADEMY,Public,School,111 EAST 33RD STREET,10016,-73.981243,40.746266
2968,COOKE CTR ACAD SKILLS PROGRAM,Nonsectarian,School,254 WEST 29TH STREET,10001,-73.994468,40.748415
2969,ARIS PARENT LINK-(WTC),Public,Office,52 CHAMBERS STREET ROOM 313,10007,-74.005623,40.713747
2970,OFFICE OF ARTS & SPECIAL PROJ,Public,Office,333 7th AVENUE  ROOM 801,10001,-73.992951,40.747621
2971,P2G @ MADISON AVENUE,Public,School,40 EAST 29TH STREET,10016,-73.98483,40.744356
2972,MCCARTON CENTER,Nonsectarian,School,350 EAST 82ND STREET,10028,-73.952499,40.774717
2973,DEPT. OF MATH -SCIENCE  TWEED,Public,Office,52 CHAMBERS STREET  ROOM 208,10007,-74.005623,40.713747
2974,FIELD OPERATIONS,Public,Office,52 CHAMBERS STREET ROOM 413,10007,-74.005623,40.713747
2976,SPECIALIZED HS INST-TWEED,Public,Office,52 CHAMBERS STREET  ROOM 415,10007,-74.005623,40.713747
2977,CENTRAL OFFICE HOME SCHOOLING,Public,Office,333 7TH AVENUE  7th FLOOR,10001,-73.992951,40.747621
2980,EBL COACHING (IMPARTIAL),Nonsectarian,School,17 EAST 89TH STREET SUITE 1D,10128,-73.958215,40.783231
2981,P226M @ PACE UNIVERSITY,Public,School,163 WILLIAM STREET 11TH FLOOR,10038,-74.005958,40.710182
2982,P226M@ P841 THE LIGHTHOUSE,Public,School,111 EAST 59 STREET,10022,-73.969139,40.76273
2983,QUEST TO LEARN,Public,School,351 WEST 18TH STREET,10011,-74.002069,40.742925
2984,HUDSON HS OF LEARNING TECH,Public,School,351 WEST 18TH STREET,10011,-74.002069,40.742925
2986,AARON ELEMENTARY SCHOOL,Nonsectarian,School,309 EAST 45TH STREET,10017,-73.970286,40.75163
2990,AARON SCHOOL,Nonsectarian,School,42 EAST 30TH STREET,10016,-73.98438,40.744973
2991,P138M @ IS 114,Public,School,331 EAST 91 STREET,10128,-73.948513,40.780777
2993,URBAN ASSEMBLY NY HARBOR SCH,Public,School,"10 SOUTH ST,BATTERY MARITIME SLIP 7",10004,-74.01157,40.701779
2997,ALC-BATTERY PARK,Public,School,50 BROADWAY   12TH FLOOR,10007,-74.012675,40.706407
2998,STEINHARDT SCH OF EDUC. NYU  S,Public,Office,82 WASHINGTON SQUARE EAST  3RD FL,10003,-73.996168,40.729873
2999,LYCEE FRANCAIS DE NEW YORK,Nonsectarian,School,505 EAST 75TH STREET,10021,-73.951874,40.768716
3001,THE SHEFA SCHOOL,Yeshiva,School,180 AMSTERDAM AVENUE,10023,-73.983528,40.776181
3002,The Ideal Sch of Man MS&HS,Nonsectarian,School,270 West 89th Street,10024,-73.97588,40.790476
3004,THE MANHATTAN CHILDREN'S CNTR,Nonsectarian,School,111 West 92 street,10025,-73.969962,40.790634
3005,Manhattan Behavioral Center,Nonsectarian,School,124 West 95th Street,10025,-73.968979,40.792492
3006,HUNTINGTON LRNG CTR-CORP,Other Religion,Office,237 WEST 72ND STREET,10023,-73.983033,40.779214
3007,Mysak Clinic,Nonsectarian,School,525 W 120th Street,10027,-73.96009,40.809716
3008,Academics West,Nonsectarian,School,"124 West 79th Street, Suite B",10024,-73.976403,40.782329
3009,PS 9,Public,School,100 WEST 84TH STREET,10024,-73.973613,40.785275
3010,P2G-LINCOLN SQ NEIGH CTR,Public,School,250 WEST 65TH STREET,10023,-73.985107,40.774263
3011,MANHATTAN COUNTRY SCHOOL,Nonsectarian,School,150 West 85th Street,10024,-73.974119,40.786407
3012,MID-MANHATTAN ADULT LRN CTR,Public,Office,212 WEST 120 STREET,10027,-73.951385,40.805994
3054,I.S. 54,Public,School,103 WEST 107TH STREET,10025,-73.962777,40.80018
3075,PS 75,Public,School,735 WEST END AVENUE,10025,-73.973382,40.795192
3076,PS/MS 76,Public,School,220 WEST 121ST STREET,10027,-73.951103,40.806696
3084,PS 84,Public,School,32 WEST 92ND STREET,10025,-73.967627,40.789461
3087,PS 87,Public,School,160 WEST 78TH STREET,10024,-73.977654,40.781876
3145,PS 145,Public,School,150 WEST 105TH STREET,10025,-73.964838,40.799088
3149,PS/MS 149 SOJOURNER TRUTH SCH,Public,School,41 WEST 117TH STREET,10026,-73.947773,40.802201
3163,PS 163,Public,School,163 WEST 97TH STREET,10025,-73.968646,40.794328
3165,PS 165,Public,School,234 WEST 109TH STREET,10025,-73.965424,40.80275
3166,PS 166,Public,School,132 WEST 89TH STREET,10024,-73.971869,40.788788
3180,PS 180,Public,School,370 WEST 120TH STREET,10027,-73.955615,40.807774
3185,PS 185,Public,School,20 WEST 112TH STREET,10026,-73.948701,40.798192
3191,PS 191/HUDSON HONORS M.S.,Public,School,210 WEST 61ST STREET,10023,-73.987375,40.771857
3199,PS 199,Public,School,270 WEST 70TH STREET,10023,-73.984497,40.77799
3208,PS 208,Public,School,21 WEST 111TH STREET,10026,-73.949646,40.797932
3279,THE OPPORTUNITY CHARTER MS,Charter,School,240 WEST 113 STREET,10026,-73.955251,40.801746
3291,WESTEND SECONDARY,Public,School,227-243 WEST 61ST STREET,10023,-73.987579,40.772137
3299,"HS ARTS,IMAGINATION & INQUIRY",Public,School,122 AMSTERDAM AVENUE,10023,-73.984842,40.774384
3325,WADLEIGH SEC.SCH.PERF.& VISUAL,Public,School,215 WEST 114 STREET,10026,-73.954189,40.802313
3329,HARLEM LINK CHARTER SCHOOL,Charter,School,20 WEST 112 STREET,10026,-73.948701,40.798192
3334,PS 334 THE ANDERSON SCHOOL,Public,School,100 WEST 77TH STREET,10024,-73.976909,40.780757
3351,SUCCESS ACADEMY HARLEM 1,Charter,School,34 WEST 118 ST  2ND FLOOR,10026,-73.946752,40.802399
3384,SUCCESS ACADEMY HARLEM 4,Charter,School,240 WEST 113TH STREET,10026,-73.955251,40.801746
3406,PS 242,Public,School,134 WEST 122 STREET,10027,-73.948056,40.80623
3407,M.S.245 COMPUTER SCHOOL I,Public,School,100 WEST 77 STREET,10024,-73.976909,40.780757
3408,WEST END DAY SCHOOL,Other Religion,School,255 WEST 71 STREET,10023,-73.983597,40.778657
3409,DROPOUT PREVENTION PROG.,Public,Office,122 AMSTERDAM AVENUE,10023,-73.984842,40.774384
3417,PARKSIDE SCHOOL,Nonsectarian,School,48-50 WEST 74TH STREET,10023,-73.976411,40.778033
3420,PS 241,Public,School,240 WEST 113TH STREET,10026,-73.955251,40.801746
3421,WEST PREP ACADEMY,Public,School,150 WEST 105 STREET,10025,-73.964838,40.799088
3422,SISULU CHILDREN'S ACADEMY,Charter,School,125 WEST 115 STREET,10026,-73.950944,40.801754
3423,THE CALHOUN LOWER SCHOOL,Nonsectarian,School,160 WEST 74 STREET,10023,-73.979505,40.779337
3442,M.S.247,Public,School,32 WEST 92 STREET,10025,-73.967627,40.789461
3448,P226M @ P076M,Public,School,220 WEST 121 STREET,10027,-73.951103,40.806696
3449,THE U.A.SCH FOR GREEN CAREERS,Public,School,145 WEST 84TH STREET,10024,-73.974386,40.785795
3450,THE SPEC MUSIC SCH OF AMERICA,Public,School,129 WEST 67 STREET,10023,-73.982687,40.774981
3452,PS 452,Public,School,100 WEST 77TH STREET,10024,-73.976909,40.780757
3455,P226M @ P208M,Public,School,21 WEST 111 ST,10026,-73.949646,40.797932
3464,P811M @ P163M,Public,School,163 WEST 97TH STREET,10025,-73.968646,40.794328
3469,FREDERICK DOUGLAS ACAD.II,Public,School,215 WEST 114TH STREET,10026,-73.954189,40.802313
3470,AHRC ELEM/CENTRAL PARK,Other Religion,School,15 WEST 65 STREET,10023,-73.97986,40.772158
3474,P811M @ P075M,Public,School,735 WEST END AVENUE,10025,-73.973382,40.795192
3475,P811M @ P149M/HARLEM CHILD,Public,School,34 WEST 118 ST,10026,-73.946752,40.802399
3480,P811M @ MICKEY MANTLE,Public,School,466 WEST END AVE,10024,-73.979417,40.786578
3481,DEMOCRACY PREP HARLEM-HS,Charter,School,212 WEST 120TH STREET,10027,-73.951385,40.805994
3487,TREVOR DAY SCHOOL,Nonsectarian,School,1 WEST 88 STREET,10024,-73.968756,40.78685
3491,P811M INCLUSION @ PS 149,Public,School,34 WEST 118 STREET,10026,-73.946752,40.802399
3492,"LAW,ADVOCACY & CRIMINAL JUST.",Public,School,122 AMSTERDAM AVENUE,10023,-73.984842,40.774384
3494,MLK-ART & TECHNOLOGY HS,Public,School,122 AMSTERDAM AVENUE,10023,-73.984842,40.774384
3511,FIORELLO LAGUARDIA HIGH SCHOOL,Public,School,100 AMSTERDAM AVENUE,10023,-73.985362,40.773665
3517,M.S.243 CENTER SCHOOL,Public,School,100 WEST 84TH STREET,10024,-73.973613,40.785275
3520,WEST SIDE HS,Public,School,140 WEST 102 STREET,10025,-73.966873,40.79749
3523,SUCCESS ACADEMY UPPER WEST,Charter,School,145 WEST 84TH STREET,10024,-73.974386,40.785795
3545,MAN/HUNTER COLL. HS OF SCIENCE,Public,School,122 AMSTERDAM AVENUE,10023,-73.984842,40.774384
3547,URBAN ASSEMBLY MEDIA HS,Public,School,122 AMSTERDAM AVENUE,10023,-73.984842,40.774384
3566,FRANK MCCOURT HS,Public,School,145 WEST 84TH STREET,10024,-73.974386,40.785795
3579,THE GENEVA SCH OF MANHATTAN,Nonsectarian,School,150 WEST 83RD STREET,10024,-73.975071,40.785062
3600,THE STUDIO SCHOOL,Nonsectarian,School,117 WEST 95TH STREET,10025,-73.9687,40.792569
3618,THE OPPORTUNITY CHARTER HS,Charter,School,240 WEST 113 STREET,10026,-73.955251,40.801746
3658,THE MANHATTAN CHILDREN'S CTR,Nonsectarian,School,124 WEST 95TH STREET,10025,-73.968979,40.792492
3661,SUCCESS ACADEMY HARLEM WEST MS,Charter,School,215 WEST 114TH STREET,10026,-73.954189,40.802313
3667,PHOENIX HOUSE-IMPACT PROGRAM,Public,School,164 WEST 74TH STREET 3RD FLOOR,10023,-73.97959,40.779372
3669,THE ABRAHAM JOSHUA HESCHEL SCH,Yeshiva,School,20 WEST END AVENUE,10023,-73.989829,40.772294
3673,HARLEM HEBREW LANGUAGE CHARTER,Charter,School,147 ST. NICHOLAS AVENUE,10026,-73.952851,40.804547
3675,P138M@ WESTSIDE YMCA @ JHS 54,Public,School,103 WEST 107 STREET,10025,-73.962777,40.80018
3686,HARLEM ACADEMY,Nonsectarian,School,1330 FIFTH AVENUE,10026,-73.94865,40.797844
3687,THE GLOBAL LRNG COLLABORATIVE,Public,School,145 WEST 84TH STREET,10024,-73.974386,40.785795
3688,INNOVATION DIPLOMA PLUS,Public,School,145 WEST 84TH STREET ROOM 421A,10024,-73.974386,40.785795
3689,THE IDEAL SCH OF MANHATTAN,Nonsectarian,School,314 WEST 91TH STREET,10024,-73.975975,40.792157
3690,SPECIAL MUSIC SCHOOL HS,Public,School,122 AMSTERDAM AVENUE,10023,-73.984842,40.774384
3701,BLESSED SACRAMENT SCHOOL,Parochial,School,147 WEST 70TH STREET,10023,-73.980745,40.776622
3703,ST GREGORY SCHOOL,Parochial,School,138 WEST 90TH STREET,10024,-73.971093,40.789288
3709,BEIT RABBAN,Yeshiva,School,15 WEST 86TH STREET,10024,-73.96999,40.785666
3710,MANHATTAN STAR ACADEMY,Nonsectarian,School,180 AMSTERDAM AVENUE,10023,-73.983528,40.776181
3713,CATHEDRL SCH OF ST JOHN DIVINE,Nonsectarian,School,1047 AMSTERDAM AVENUE,10025,-73.963076,40.803875
3731,RODEPH SHOLOM BRIDGE DIV.,Yeshiva,School,10 WEST 84TH STREET,10024,-73.970921,40.784139
3732,ST  HILDAS & ST HUGHS SCHOOL,Christian,School,619 WEST 114TH STREET,10025,-73.96541,40.807037
3733,METROPOLITAN MONTESSORI SCHOOL,Nonsectarian,School,325 WEST 85 STREET,10024,-73.979101,40.788612
3736,TRINITY SCHOOL,Nonsectarian,School,139 WEST 91 STREET,10024,-73.970988,40.790251
3737,ASCENSION SCHOOL,Parochial,School,220 WEST 108TH STREET,10025,-73.965601,40.801999
3740,CORPUS CHRISTI SCHOOL,Parochial,School,535 WEST 121ST STREET,10027,-73.959738,40.810531
3749,NY FRENCH AMERICAN CHARTER SCH,Charter,School,311 WEST 120TH STREET,10027,-73.954083,40.807325
3751,RODEPH SHOLOM ELEM DIV,Yeshiva,School,168 WEST 79 STREET,10024,-73.977326,40.78263
3754,P754X@ Lincoln Center,Public,School,113 West 60th Street,10023,-73.984912,40.770199
3755,YESHIVA KETANA OF MANHATTAN,Yeshiva,School,346 WEST 89 STREET,10024,-73.977547,40.791181
3785,MANHATTAN DAY SCHOOL,Yeshiva,School,310 WEST 75TH STREET,10023,-73.983485,40.781844
3802,GUILD SCH JGB EDUCATION SERVIC,Nonsectarian,School,15 WEST 65TH STREET,10023,-73.97986,40.772158
3807,BANK STREET SCHOOL,Nonsectarian,School,610 WEST 112TH STREET,10025,-73.96624,40.805556
3809,CALHOUN SCHOOL,Nonsectarian,School,433 WEST END AVENUE,10024,-73.980468,40.785473
3811,DWIGHT SCHOOL-RIVERSIDE CAMPUS,Nonsectarian,School,433 WEST 66TH STREET,10023,-73.98878,40.776774
3564,MANHATTAN THEATRE LAB H.S.,Public,School,122 AMSTERDAM AVENUE,10023,-73.984842,40.774384
3812,COLLEGIATE SCHOOL (UPPER),Nonsectarian,School,260 WEST 78TH STREET,10024,-73.980992,40.783283
3813,COLUMBIA GRAMMAR & PREP SCH,Nonsectarian,School,5 WEST 93RD STREET,10025,-73.966521,40.790011
3814,THE DWIGHT SCHOOL,Nonsectarian,School,18 WEST 89TH STREET,10024,-73.968719,40.787459
3815,COLLEGIATE SCHOOL (MIDDLE),Nonsectarian,School,260 WEST 78TH STREET,10024,-73.980992,40.783283
3816,COLLEGIATE SCHOOL (LOWER),Nonsectarian,School,262 WEST 78TH STREET,10024,-73.981025,40.783297
3820,ETHICAL CULTURE SCHOOL,Nonsectarian,School,33 CENTRAL PARK WEST,10023,-73.980064,40.77077
3823,PROF. CHILDREN'S SCHOOL,Nonsectarian,School,132 WEST 60TH STREET,10023,-73.985416,40.77022
3825,STEPHEN GAYNOR SCHOOL,Nonsectarian,School,148 West 90th street,10024,-73.971217,40.789339
3827,WESTSIDE MONTESSORI,Nonsectarian,School,309 WEST 92ND STREET,10025,-73.97532,40.792897
3829,ALEXANDER ROBERTSON SCH,Nonsectarian,School,3 WEST 95TH STREET,10025,-73.965577,40.791255
3830,STEPHEN GAYNOR SCHOOL,Nonsectarian,School,175 WEST 89TH STREET,10024,-73.972614,40.789294
3841,ROBERT L. STEVENSON SCHOOL,Nonsectarian,School,24 WEST 74TH STREET,10023,-73.975929,40.777829
3850,YORK PREPARATORY SCHOOL,Nonsectarian,School,40 WEST 68 STREET,10023,-73.97907,40.774084
3852,M.S.250,Public,School,735 WEST END AVENUE,10025,-73.973382,40.795192
3853,MANHATTAN SCHOOL FOR CHILDREN,Public,School,154 WEST 93 STREET,10025,-73.970489,40.791489
3856,M.S.256,Public,School,154 WEST 93 STREET,10025,-73.970489,40.791489
3858,M.S.258,Public,School,154 WEST 93 STREET,10025,-73.970489,40.791489
3861,SOLOMON SCHECTER SCH.OF MAN.,Yeshiva,School,805 COLUMBUS AVENUE,10025,-73.96589,40.794924
3862,MOTT HALL II  (MS 862),Public,School,234 WEST 109TH STREET,10025,-73.965424,40.80275
3864,FUTURE LEADERS INSTITUTE,Charter,School,134 WEST 122 ST,10027,-73.948056,40.80623
3867,THE SCH AT COLUMBIA UNIVERSITY,Nonsectarian,School,556 WEST 110 STREET,10025,-73.96542,40.80353
3888,AMER.MUSEUM OF NATURAL HISTORY,Nonsectarian,Office,79TH STREET CENTRAL PARK WEST,10024,-73.972745,40.780791
3895,MANDELL SCHOOL,Nonsectarian,School,795 COLUMBUS AVENUE,10025,-73.966045,40.794711
3896,INTER ACAD OF HOPE  (I HOPE),Nonsectarian,School,101 WEST 116TH STREET,10026,-73.950093,40.802294
3910,THE GATEWAY SCHOOL OF NY,Nonsectarian,School,211 WEST 61 STREET,10023,-73.987267,40.772006
3931,THE SMITH SCHOOL,Nonsectarian,School,131 WEST 86TH STREET 9TH FLOOR,10024,-73.973143,40.786993
3973,RE-START @ CARE ST LUKES,Public,School,411 WEST 114TH STREET,10025,-73.960446,40.804957
4000,DISTRICT OFFICE #4,Public,Office,160 EAST 120TH STREET  ROOM 403,10035,-73.939007,40.800777
1002,WCL Academy,Nonsectarian,School,44 EAST 2ND STREET,10003,-73.990063,40.724904
3800,P754X @ LINCOLN CTR,Public,School,133 WEST 60TH STREET,10023,-73.985308,40.770368
4001,P751M @ MT.SINAI,Public,School,1468 MADISON AVENUE,10029,-73.95207,40.790272
4002,P811M @ J275,Public,School,260 PLEASANT AVENUE,10029,-73.933942,40.793817
4003,MS 72,Public,School,131 EAST 104TH STREET,10029,-73.947738,40.791252
4004,Democracy Prep Endurance HS AX,Charter,School,240 E 123RD STREET,10035,-73.935071,40.801389
4005,CP Harlem Charter School,Charter,School,1 East 104th Street,10029,-73.951778,40.792942
4006,P2G @ Cornerstone,Public,School,1833 Lexington Avenue,10029,-73.942874,40.796894
4007,PS/MS 7,Public,School,160 EAST 120TH STREET,10035,-73.939007,40.800777
4050,PS 50,Public,School,433 EAST 100TH STREET,10029,-73.942127,40.785599
4057,PS 57,Public,School,176 EAST 115TH STREET,10029,-73.941341,40.797515
4072,PS 72,Public,School,131 EAST 104TH STREET,10029,-73.947738,40.791252
4083,PS 83,Public,School,219 EAST 109TH STREET,10029,-73.942502,40.793261
4096,PS/MS 96,Public,School,216 EAST 120TH STREET,10035,-73.937616,40.800191
4102,PS 102,Public,School,315 EAST 113TH STREET,10029,-73.938935,40.795055
4108,PS 108,Public,School,1615 MADISON AVENUE,10029,-73.948283,40.795108
4112,PS 112,Public,School,535 EAST 119TH STREET,10035,-73.930923,40.796738
4121,PS 38,Public,School,232 EAST 103RD STREET,10029,-73.944584,40.788883
4138,P138M @ P409M,Public,School,2351 First Avenue,10035,-73.933219,40.799174
4146,PS 146,Public,School,421 EAST 106TH STREET,10029,-73.93935,40.789421
4155,PS 155,Public,School,319 EAST 117TH STREET,10035,-73.936588,40.797483
4168,EAST HARLEM SCHOLARS ACAD #2,Charter,School,1573 MADISON AVENUE,10029,-73.949297,40.79372
4171,PS 171,Public,School,19 EAST 103RD STREET,10029,-73.951924,40.792193
4206,PS 206,Public,School,508 EAST 120TH STREET,10035,-73.931101,40.797474
4363,COALITION SCH SOCIAL CHANGE HS,Public,School,2351 1ST AVENUE,10035,-73.933219,40.799174
4372,ESPERANZA PREPARATORY ACAD,Public,School,240 EAST 109 STREET,10029,-73.942364,40.793009
4375,MOSAIC PREPARATORY ACADEMY,Public,School,141 EAST 111 STREET,10029,-73.944374,40.795713
4377,RENAISSANCE SCH OF THE ARTS,Public,School,319 EAST 117TH STREET,10035,-73.936588,40.797483
4385,SUCCESS ACADEMY HARLEM 3K,Charter,School,410 EAST 100TH STREET,10029,-73.942508,40.785565
4403,ISAAC NEWTON SCHOOL,Public,School,260 PLEASANT AVENUE,10029,-73.933942,40.793817
4404,RIVER EAST ELEM.PS 37,Public,School,508 EAST 120TH STREET ROOM 441,10035,-73.931101,40.797474
4416,P169M @ MANH. CTR/MATH & SCIEN,Public,School,260 PLEASANT AVENUE,10029,-73.933942,40.793817
4422,THE HIGHWAY CHRISTIAN ACADEMY,Christian,School,132 EAST 111 STREET,10029,-73.944586,40.795608
4433,RENAISSANCE CHARTER HS INNOV.,Charter,School,410 EAST 100TH STREET,10029,-73.942508,40.785565
4454,LEADERSHIP VILLAGE ACAD.CHARTR,Charter,School,2351 1ST AVENUE  ROOM 401,10035,-73.933219,40.799174
3985,STANDING TALL      (IMPARTIAL),Nonsectarian,School,101 WEST 116TH STREET,10026,-73.950093,40.802294
4455,EAST HARLEM VILL.ACAD. CHARTER,Charter,School,413 EAST 120TH STREET,10035,-73.932945,40.798449
4464,P169M @ P155M,Public,School,319 EAST 117 STREET,10035,-73.936588,40.797483
4469,P169M @ PS 102,Public,School,315 EAST 113 STREET,10029,-73.938935,40.795055
4477,HARLEM PREP CHARTER SCHOOL,Charter,School,240 EAST 123rd STREET,10035,-73.935018,40.80156
4479,HARLEM PREP CHARTER M.S.,Charter,School,232 EAST 103RD STREET,10029,-73.944584,40.788883
4481,AMBER CHARTER SCHOOL,Charter,School,220 EAST 106 STREET,10029,-73.944081,40.791221
4483,PS 182 (BBMS),Public,School,219 EAST 109TH STREET,10029,-73.942502,40.793261
4486,P811M @ P101M,Public,School,141 EAST 111 ST,10029,-73.944374,40.795713
4503,PARK EAST HS,Public,School,230 EAST 105TH STREET,10029,-73.944417,40.79048
4504,MAN CNTR SCI AND MATHEMATICS,Public,School,260 PLEASANT AVENUE,10029,-73.933942,40.793817
4518,EAST HARLEM SCHOLARS CHARTER,Charter,School,1573 MADISON AVENUE,10029,-73.949297,40.79372
4535,SUCCESS ACADEMY HARLEM EAST MS,Charter,School,141 EAST 111 STREET,10029,-73.944374,40.795713
4565,CENTRAL PARK EAST SECONDARY HS,Public,School,1573 MADISON AVENUE,10029,-73.949297,40.79372
4575,P2G @ YOUTH ACTION-HOMES PROG,Public,School,206 EAST 118TH STREET,10035,-73.938691,40.798999
4610,YOUNG WOMEN LEADERSHIP H.S.,Public,School,105 EAST 106TH STREET,10029,-73.947377,40.792807
4633,DREAMS ELEM CHARTER,Charter,School,433 EAST 100TH STREET,10029,-73.942127,40.785599
4650,EAST RIVER FAMILY CNTR (STH),Public,Office,325 EAST 104 STREET,10029,-73.942583,40.789066
4653,THE MANHATTAN FREE SCHOOL,Nonsectarian,School,115 EAST 106TH STREET,10029,-73.947127,40.792701
4656,EMILY N.CAREY HARBOR HS,Nonsectarian,School,1 EAST 104TH STREET,10029,-73.951778,40.792942
4657,NY CTR FOR AUTISM CHARTER SCH,Charter,School,433 EAST 100TH STREET,10029,-73.942127,40.785599
4658,DREAM CHARTER SCHOOL,Charter,School,1991 SECOND AVENUE,10029,-73.944213,40.788381
4661,LEADERSHIP ELEM CHARTER SCH,Charter,School,2351 FIRST AVENUE 3RD FLOOR,10035,-73.933219,40.799174
4668,SCANS LAGUARDIA OFF-SITE SUSP.,Public,Office,307 EAST 116TH STREET,10032,-73.937271,40.796888
4671,CENTRAL PARK EAST I,Public,School,1573 MADISON AVENUE,10029,-73.949297,40.79372
4672,CENTRAL PARK EAST SCHOOL II,Public,School,19 EAST 103 STREET,10029,-73.951924,40.792193
4678,P169M @ PS 146,Public,School,421 EAST 106TH STREET,10029,-73.93935,40.789421
4681,GLOBAL TECHNOLOGY PREP,Public,School,160 EAST 120TH STREET,10035,-73.939007,40.800777
4684,CRISTO REY HIGH SCHOOL,Parochial,School,112 EAST 106 STREET,10029,-73.947235,40.792553
4685,P138M @ JHS 117,Public,School,240 EAST 109 STREET,10029,-73.942364,40.793009
4687,THE EAST HARLEM SCHOOL,Nonsectarian,School,309 EAST 103 STREET,10029,-73.943282,40.788542
4731,MT CARMEL-HOLY ROSARY SCH,Parochial,School,371 PLEASANT AVENUE,10035,-73.931603,40.797355
4733,OUR LADY QUEEN OF ANGELS,Parochial,School,232 EAST 113TH STREET,10029,-73.940063,40.795354
4736,ST PAUL SCHOOL,Parochial,School,114 EAST 118TH STREET,10035,-73.941447,40.800163
4737,ST ANN SCHOOL,Parochial,School,314 EAST 110TH STREET,10029,-73.940025,40.792864
4745,HARBOR SCI & ART CHARTER SCH.,Charter,School,132 EAST 111TH STREET,10029,-73.944586,40.795608
4750,HERITAGE HIGH SCHOOL,Public,School,1680 LEXINGTON AVE,10029,-73.946648,40.791914
4774,FALU FOUNDATION,Nonsectarian,School,333 EAST 118TH STREET,10035,-73.935893,40.798013
4837,TAG SCHOOL FOR YOUNG SCHOLARS,Public,School,240 EAST 109 STREET,10029,-73.942364,40.793009
4839,THE REECE SCHOOL,Nonsectarian,School,25 EAST 104TH STREET,10029,-73.951068,40.792649
4877,PS 206 M.S.,Public,School,508 EAST 120TH STREET,10035,-73.931101,40.797474
4887,ALC @ EAST HARLEM,Public,School,321 EAST 111TH STREET  5TH FLOOR,10026,-73.939367,40.793601
4898,NORTHSIDE CNTR CHILD DEV INC,Other Religion,School,35 E 110 street,10029,-73.947944,40.796392
4964,CENTRAL PK EAST SCH ll  ANNEX,Public,School,1615 MADISON AVENUE,10029,-73.948283,40.795108
1003,Pathways Children's Servicecs,Nonsectarian,School,273 Bowery,10002,-73.992781,40.723629
1004,Great Oaks Charter School,Charter,School,38 Delancey Street,10002,-73.99178,40.719819
1005,ALTSCHOOL,Nonsectarian,School,1 Avenue B,10009,-73.983719,40.721605
5001,SUCCESS ACAD HARLEM CTRL  MS,Charter,School,461 WEST 131 STREET,10027,-73.953509,40.816213
5003,P2G @ CITY COLLEGE,Public,School,160 CONVENT AVENUE,10031,-73.950311,40.819232
5030,PS 30 HERNANDEZ/HUGHES ACADEMY,Public,School,144-176 East 128th Street,10035,-73.935739,40.80609
5036,PS 36,Public,School,123 MORNINGSIDE DRIVE,10027,-73.957428,40.810336
5046,PS 46,Public,School,2987 8TH AVENUE,10039,-73.93629,40.830671
5065,DEMOCRACY PREP ENDURANCE SCH,Charter,School,250 WEST 127TH STREET,10027,-73.948893,40.810822
5079,P079M @ HORAN SCHOOL,Public,School,55 EAST 120 STREET,10035,-73.942595,40.802489
5085,GLOBAL COMM CHARTER SCHOOL,Charter,School,2350 5TH AVENUE,10037,-73.93484,40.81678
5092,PS 92,Public,School,222 WEST 134TH STREET,10030,-73.945153,40.814941
5100,NEIGHBORHOOD CHART.SCH HARLEM,Charter,School,132 WEST 124TH STREET,10027,-73.94709,40.807471
5123,PS/IS 123 MAHALIA JACKSON MS,Public,School,301 WEST 140TH STREET,10030,-73.944384,40.819834
5125,PS 125 RALPH BUNCHE,Public,School,425 WEST 123RD STREET,10027,-73.955852,40.810535
5129,PS 129 JOHN FINLEY,Public,School,425 WEST 130TH STREET,10027,-73.951862,40.814703
5133,CS 133 FRED R. MOORE ACADEMY,Public,School,2121 5TH AVENUE,10037,-73.939784,40.809634
5148,EAGLE ACAD YOUNG MEN OF HARLEM,Public,School,6 EDGECOMBE AVENUE,10030,-73.947624,40.817333
5154,PS 154,Public,School,250 WEST 127TH STREET,10027,-73.948893,40.810822
5157,U.A.SCH FOR GLOBAL COMMERCE,Public,School,2005 MADISON AVENUE,10035,-73.939346,40.807347
5161,PS 161 PEDRO ALBIZU CAMPOS,Public,School,499 WEST 133RD STREET,10027,-73.952999,40.817614
5175,PS 175,Public,School,175 WEST 134 STREET,10030,-73.943151,40.814293
5194,CS 194,Public,School,244 WEST 144TH STREET,10030,-73.940977,40.821463
5197,PS 197 JOHN RUSSWURM,Public,School,2230 5TH AVENUE,10037,-73.937414,40.813226
5200,PS 200 JAMES MCCUNE SMITH,Public,School,2589 7TH AVENUE,10039,-73.936804,40.824408
5284,PROMISE ACADEMY 1 H.S.,Charter,School,245 WEST 129TH STREET  5TH FLOOR,10027,-73.947025,40.811839
5286,IS 286 R.M.L.A.,Public,School,509 WEST 129TH STREET,10027,-73.955267,40.815318
5302,KAPPA IV  M302,Public,School,6 EDGECOMBE AVENUE,10030,-73.947624,40.817333
5318,THURGOOD MARSHALL LOWER SCH,Public,School,282 WEST 151st STREET,10039,-73.938058,40.826068
5341,PROMISE ACADEMY II M.S.,Charter,School,35 EAST 125TH STREET,10035,-73.941175,40.806055
5362,COLUMBIA SECONDARY SCHOOL,Public,School,425 WEST 123RD STREET,10027,-73.955852,40.810535
5365,THURG MARSHAL ACAD LRNG SOC CH,Public,School,200-214 WEST 135 STREET,10030,-73.944252,40.815441
5367,ACADEMY FOR SOCIAL ACTION,Public,School,509 WEST 129TH STREET,10027,-73.955267,40.815318
5369,U.A.SCH FOR PERFORMING ARTS,Public,School,509 WEST 129 STREET,10027,-73.955267,40.815318
5384,SUCCESS ACAD HARLEM N.C. MS,Charter,School,175 WEST 134TH STREET,10030,-73.943151,40.814293
5385,SUCCESS ACAD-NORTH WEST-MS,Charter,School,509 WEST 129TH STREET,10027,-73.955267,40.815318
5403,MOTT HALL PS/IS 223,Public,School,71-111 CONVENT AVE,10027,-73.95281,40.81545
5417,MANHATTAN SCHOOL OF MUSIC,Nonsectarian,School,120 CLAREMONT AV,10027,-73.961767,40.81254
5440,P138M @ P030M,Public,School,144-176 EAST 128 ST,10035,-73.935739,40.80609
5445,KIPP STAR COLLEGE PREP CHARTER,Charter,School,433 WEST 123RD STREET,10027,-73.955999,40.810598
5450,P751M @ TEACHERS COLLEGE,Public,School,525 WEST 120 STREET,10027,-73.960037,40.809782
5455,HARLEM VILLAGE ACADEMY,Charter,School,244 WEST 144TH STREET,10030,-73.940977,40.821463
5463,P751M @ PARA TRAINING,Public,School,144-176 EAST 128 STREET,10035,-73.935739,40.80609
5481,DEMOCRACY PREP HARLEM-ELEM,Charter,School,2005 MADISON AVENUE,10035,-73.939346,40.807347
5487,P226M @P826 GOODWILL INDUST,Public,School,2196 5TH AVENUE,10037,-73.938212,40.812133
5499,FREDERICK DOUGLAS ACAD. HS,Public,School,2581 ADAM CLAYTON POWELL JR. BLVD.,10039,-73.936935,40.824235
5514,NEW DESIGN MS,Public,School,625 WEST 133RD STREET,10027,-73.956483,40.819093
5517,TEACHERS COLLEGE ELEMENTARY,Public,School,168 MORNINGSIDE AVENUE,10027,-73.953408,40.812453
5534,SUCCESS ACADEMY HARLEM 2,Charter,School,144 EAST 128TH STREET,10035,-73.935739,40.80609
5548,WEST SIDE HS ANNEX,Public,School,22 EAST 128 STREET,10035,-73.940109,40.80792
5551,MOTT HALL HIGH SCHOOL,Public,School,6 EDGECOMBE AVENUE,10030,-73.947624,40.817333
5563,DEMOCRACY PREP CHARTER SCH MS,Charter,School,2230 5TH AVENUE,10037,-73.937414,40.813226
5565,HARLEM RENAISSANCE HS,Public,School,22 EAST 128 STREET,10035,-73.940109,40.80792
5573,RESTART@ FRIENDS OF ISLAND ACA,Public,School,127 WEST 127TH STREET,10027,-73.945433,40.809548
5616,PROMISE ACADEMY 1 M.S.,Charter,School,245 WEST 129TH STREET  4TH FLOOR,10027,-73.947025,40.811839
5617,PROMISE ACADEMY 1 LOWER ELEM,Charter,School,245 WEST 129TH STRRET  2ND FLOOR,10027,-73.947025,40.811839
5621,DEMOCRACY PREP HARLEM CHARTER,Charter,School,207 WEST 133TH STREET,10030,-73.945199,40.814338
5634,CITY HALL ACADEMY,Public,Office,425 WEST 130 STREET,10027,-73.951862,40.814703
5651,ST BENEDICT DAY NURSERY,Parochial,School,21 WEST 124TH STREET,10027,-73.943488,40.806148
5350,CHOIR ACADEMY OF HARLEM,Public,School,2005 MADISON AVE,10035,-73.939346,40.807347
5653,DEMOCRACY PREP CHARTER SCH HS,Charter,School,222 WEST 134th STREET,10030,-73.945153,40.814941
5660,P2G @ GOSO,Public,School,91 EAST 116TH STREET,10029,-73.943643,40.799577
5661,HARLEM VILLAGE ACAD.ELEM,Charter,School,74 WEST 124TH STREET,10027,-73.945152,40.806653
5664,PROMISE ACADEMY II H.S.,Charter,School,35 EAST 125TH STREET,10035,-73.941175,40.806055
5666,FAMILY WELCOME CENTER,Public,Office,388 WEST 125TH STREET  7TH FLOOR,10027,-73.953639,40.811113
5667,THE FELLOWSHIP OF LEARNING,Christian,School,9 WEST 130TH STREET,10037,-73.940523,40.809921
5668,P2G @ HARLEM RENAISSANCE HS,Public,School,22 EAST 128TH STREET,10035,-73.940109,40.80792
5410,U.A.INST FOR NEW TECHNOLOGIES,Public,School,509 WEST 129TH STREET,10027,-73.955267,40.815318
5669,P2G @ YOUTH BUILD MANHATTAN,Public,School,669 LENOX AVENUE,10037,-73.937173,40.819433
5676,GROVE SCH OF ENGINEERING C.C.,Public,School,140TH STREET & CONVENT AVENUE,10031,-73.948541,40.821487
5682,SUCCESS ACADEMY HARLEM 5,Charter,School,301 WEST 140TH STREET,10030,-73.944384,40.819834
5684,PROMISE ACAD II LOWER ELEM,Charter,School,2005 MADISON AVENUE,10035,-73.939346,40.807347
5686,KIPP INFINITY ELEM.,Charter,School,625 WEST 133RD STREET   3RD FLOOR,10027,-73.956483,40.819093
5688,ST HOPE ACADEMY CHARTER SCHOOL,Charter,School,222 WEST 134 STREET,10030,-73.945153,40.814941
5692,"HS FOR MATH,SCI & ENG. @ C.C.",Public,School,240 CONVENT AVENUE,10031,-73.94919,40.820772
5709,VILLAGE ACADEMY HIGH SCHOOL,Charter,School,35 WEST 124TH STREET,10027,-73.943892,40.806316
5727,STAR ELEMENTARY HARLEM,Charter,School,625 WEST 133RD STREET,10027,-73.956483,40.819093
5647,CSE 10,Public,Office,388 WEST 125TH STREET,10027,-73.953639,40.811113
5733,GREAT TOMORROWS USA ELEM/MID,Christian,School,38 WEST 123 STREET,10027,-73.945483,40.805962
5752,ST ALOYSIUS SCHOOL,Parochial,School,223 WEST 132ND STREET,10027,-73.945954,40.813842
5754,ST CHARLES BORROMEO SCH,Parochial,School,214 WEST 142ND STREET,10030,-73.941304,40.819971
5755,ST MARKS EVANGELIST SCH,Parochial,School,55 WEST 138TH STREET,10037,-73.938086,40.815552
5775,THE KINGS ACADEMY,Nonsectarian,School,2341 THIRD AVE,10035,-73.934701,40.805049
5819,JEWISH BD OF FAM & CHILD SER,Nonsectarian,School,34 WEST 139TH STREET,10037,-73.937006,40.815745
5858,KIPP INFINITY CHARTER MS,Charter,School,625 WEST 133RD STREET,10027,-73.956483,40.819093
5868,NEW BROADWAY HOTEL STH,Public,Office,433 WEST 123 STREET,10027,-73.955999,40.810598
5887,ALC @ CHOIR ACAD,Public,School,2005 MADISON AVENUE LEVEL B,10035,-73.939346,40.807347
5888,CITY COLL-STEM INSTITUTE,Nonsectarian,School,160 CONVENT AVENUE,10031,-73.950311,40.819232
5912,THE CHILDREN'S STORE FRONT,Nonsectarian,School,57 EAST 129 STREET,10035,-73.938192,40.808124
5979,NATIONAL DANCE INSTITUTE   S,Other Religion,School,217 WEST 147TH STREET,10039,-73.938869,40.823342
5994,JACKIE ROBINSON ALT LRNG SITE,Public,Office,181 WEST 135 STREET,10030,-73.942795,40.815021
6000,DISTRICT OFFICE #6,Public,Office,4360 BROADWAY - 4TH FLOOR,10033,-73.933958,40.853431
6002,RESTART @ GEORGE WASHINGTON HS,Public,School,549 AUDOBON AVENUE,10040,-73.926962,40.855918
6003,Amber Charter School II,Charter,School,652 West 187th Street,10033,-73.932537,40.853696
6004,PS 4,Public,School,500 WEST 160 ST,10032,-73.941129,40.834831
6005,PS 5,Public,School,3703 10 AVENUE,10034,-73.922634,40.85919
6006,School in the Square,Charter,School,120 Wadsworth Avenue,10033,-73.935959,40.848654
6007,OFFICE OF ARTS -SPECIAL PROJ.,Public,Office,4360 BROADWAY,10033,-73.933958,40.853431
6008,PS 8,Public,School,465 WEST 167 STREET,10032,-73.936744,40.838987
6009,THE EQUITY PROJECT CHARTER SCH,Charter,School,4280 BROADWAY,10033,-73.935363,40.85087
6018,PS 18,Public,School,4124 9 AVENUE,10034,-73.911607,40.871311
6028,PS 28,Public,School,475 WEST 155TH STREET,10032,-73.942087,40.83129
6048,PS 48,Public,School,4360 BROADWAY,10033,-73.933958,40.853431
6052,IS 52,Public,School,650 ACADEMY STREET,10034,-73.924924,40.866018
6068,KIPP NYC WASH HEIGHTS ACAD SCH,Charter,School,21 JUMEL PLACE,10032,-73.936078,40.839262
6098,PS 98 SHORACK POCK ELEM SCH,Public,School,512 WEST 212TH STREET,10034,-73.917097,40.867754
6100,Neighborhood Charter School,Charter,School,421 West 145th Street,10031,-73.945375,40.824391
6103,DOS PUENTES ELEMENTARY SCHOOL,Public,School,185 WADSWORTH AVENUE,10033,-73.934291,40.850586
6115,PS 115 ALEXANDER HUMBOLT,Public,School,586 WEST 177TH STREET,10033,-73.935244,40.84647
6128,PS 128,Public,School,560 WEST 169TH STREET,10032,-73.938545,40.84125
6132,PS 132,Public,School,185 WADSWORTH AVENUE,10033,-73.934291,40.850586
6143,JHS 143,Public,School,515 WEST 182ND STREET ROOM 104,10033,-73.930992,40.849016
6152,PS 152,Public,School,93 NAGLE AVENUE,10040,-73.927945,40.860323
6153,PS 153,Public,School,1750 AMSTERDAM AVENUE,10031,-73.946937,40.826326
6173,PS 173,Public,School,306 FORT WASHINGTON AVENUE,10033,-73.940371,40.845445
6178,PS 178,Public,School,12-18 ELLWOOD STREET,10040,-73.927879,40.859209
6187,PS/MS 187,Public,School,349 CABRINI BLVD,10040,-73.937015,40.856639
6189,PS 189,Public,School,2580 AMSTERDAM AVENUE,10040,-73.927862,40.852435
6192,PS 192 JACOB N.SCHIFF ELEM SCH,Public,School,500 WEST 138TH STREET,10031,-73.951195,40.820884
6209,HAMILTON GRANGE MIDDLE SCHOOL,Public,School,500 WEST 138TH STREET,10031,-73.951195,40.820884
6210,PS/IS 210 21ST CENTURY ACADEMY,Public,School,501 WEST 152nd STREET,10031,-73.944738,40.829898
6211,"EARLY COLL HEALTH,INFO & TECH",Public,School,650 ACADEMY STREET,10034,-73.924924,40.866018
6218,IS 218,Public,School,4600 BROADWAY,10040,-73.930565,40.860767
6265,SUCCESS ACAD-WASHINGTON HEIGHT,Charter,School,701 FORT WASHINGTON AVENUE,10040,-73.935346,40.857627
6278,PS 278 PAULA HEDBAVNY SCHOOL,Public,School,421 W 219 STREET,10034,-73.912108,40.871317
6293,CITY COLL ACAD OF ARTS MS 293,Public,School,4600 BROADWAY,10040,-73.930565,40.860767
6311,Amistad,Public,School,4862 Broadway,10034,-73.923916,40.866633
6314,MUSCOTA NEW SCHOOL  (PS 314),Public,School,4862 BROADWAY,10034,-73.923916,40.866633
6319,MS 319 MARIA TERESA MIRABEL,Public,School,21 JUMEL PLACE,10032,-73.936078,40.839262
6322,MS 322,Public,School,4600 BROADWAY,10040,-73.930565,40.860767
6324,MS 324,Public,School,21 JUMEL PLACE,10032,-73.936078,40.839262
6325,PS 325,Public,School,500 WEST 138TH STREET,10031,-73.951195,40.820884
6328,MS 328,Public,School,401 WEST 164TH STREET,10032,-73.937241,40.836657
6346,COMM.HEALTH ACAD.OF THE HEIGHT,Public,School,504 WEST 158TH STREET,10032,-73.942097,40.833608
6348,WASHINGTON HEIGHTS EXP.LRNG,Public,School,511 WEST 182ND STREET,10033,-73.93089,40.848973
6349,HARBOR HEIGHTS MS,Public,School,306 FT.WASHINGTON AVENUE 4TH FLOOR,10033,-73.940371,40.845445
6353,NEW HEIGHTS ACAD CHARTER SCHL,Charter,School,1818 AMSTERDAM AVENUE,10033,-73.945323,40.828535
6366,PS 366 WASHINGTON HEIGHTS ACAD,Public,School,202 SHERMAN AVENUE,10040,-73.921158,40.865462
6368,M368 HAMILTON HEIGHTS SCHOOL,Public,School,1750 AMSTERDAM AVENUE,10031,-73.946937,40.826326
6411,THE KALISKI SCHOOL,Nonsectarian,School,525 AUDUBON AVENUE,10040,-73.927522,40.855151
6423,HS FOR EXCELLENCE & INNOVATION,Public,School,650 ACADEMY STREET,10033,-73.924924,40.866018
6427,GREGORIO LUPERON PREPARATORY,Public,School,501 WEST 165TH STREET,10032,-73.938584,40.838225
6436,H.S. FOR MEDIA COMMUNICATIONS,Public,School,549 AUDUBON AVENUE,10040,-73.926962,40.855918
6450,P138M @ P048M,Public,School,4360 BROADWAY,10033,-73.933958,40.853431
6462,THE COLLEGE ACADEMY,Public,School,549 AUDUBON AVENUE,10040,-73.926962,40.855918
6467,H.S. FOR LAW & PUBLIC SERVICE,Public,School,549 AUDUBON AVENUE,10040,-73.926962,40.855918
6468,H.S. FOR HEALTH CAREERS & SCI,Public,School,549 AUDUBON AVENUE,10040,-73.926962,40.855918
6485,P138M @ IS 90,Public,School,21 JUMEL PLACE,10032,-73.936078,40.839262
6513,CASTLE BRIDGE ELEM SCHOOL,Public,School,560 WEST 169TH STREET,10032,-73.938545,40.84125
6516,Y.A.B.C @ G.WASHINGTON HS,Public,School,549 AUDUBON AVENUE,10040,-73.926962,40.855918
6528,IS 528 BEA FULLER RODGERS SCH,Public,School,180 WADSWORTH AVENUE,10033,-73.934576,40.850548
6558,INWOOD ACAD FOR LEADERSHIP-MS,Charter,School,108 COOPER ST,10034,-73.920888,40.868891
6571,P2G @ YOUTH BUILD,Public,School,45 WADSWORTH AVENUE,10033,-73.937534,40.846149
6577,A. PHILIP RANDOLPH CAMPUS HS,Public,School,443 WEST 135 STREET,10031,-73.950299,40.818251
6578,THE EQUITY PROJECT CHARTER SCH,Charter,School,549 AUDUBON AVENUE TRAILER 30,10040,-73.926962,40.855918
6612,HERBERT G. BIRCH ANNEX,Nonsectarian,School,554 FORT WASHINGTON AVE,10033,-73.93716,40.853887
6674,ST MATTHEWS LUTHERAN SCH ANNEX,Christian,School,178 BENNETT AVENUE,10040,-73.934166,40.856031
6685,INWOOD ACAD LEADERSHIP CHARTER,Charter,School,433 WEST 204TH STREET,10040,-73.919062,40.862121
6687,KIPP STAR ELEMENTARY SCHOOL,Charter,School,586 WEST 177TH STREET,10033,-73.935244,40.84647
6701,GOOD SHEPHERD SCHOOL,Parochial,School,620 ISHAM STREET,10034,-73.920547,40.869156
6702,ST ELIZABETH SCHOOL,Parochial,School,612 WEST 187TH STREET,10033,-73.931456,40.853159
6326,MS 326,Public,School,401 WEST 164TH STREET,10032,-73.937241,40.836657
6708,ST SPYRIDON PAROCHIAL SCH,Nonsectarian,School,120 WADSWORTH AVENUE,10033,-73.935959,40.848654
6710,RABBI S.R. HIRSCH YESH,Yeshiva,School,85-93 BENNETT AVENUE,10033,-73.935291,40.852935
6716,YESHIVA UNIVERSITY HS BOYS,Yeshiva,School,2540 AMSTERDAM AVENUE,10033,-73.928681,40.851328
6749,INCARNATION SCHOOL,Parochial,School,570 WEST 175TH STREET,10033,-73.935902,40.845053
6750,OUR LADY OF LOURDES SCH,Parochial,School,468 WEST 143RD STREET,10031,-73.948052,40.823634
6752,OUR LADY QUEEN OF MARTYRS SCH,Parochial,School,71 ARDEN STREET,10040,-73.927832,40.863223
6759,ST ROSE OF LIMA,Parochial,School,517 WEST 164TH STREET,10032,-73.939455,40.837584
6765,MANHATTAN CHRISTIAN ACADEMY,Christian,School,401 WEST 205 STREET,10034,-73.918241,40.862584
6803,THE MICHAELS JUMEL SCHOOL,Nonsectarian,School,800 RIVERSIDE DRIVE,10032,-73.946721,40.834909
6805,SCHOOL ON THE HILL,Christian,School,421 WEST 145TH STREET,10031,-73.945375,40.824391
6835,NORTHEASTERN ACADEMY,Christian,School,532 WEST 215TH STREET,10034,-73.917413,40.870385
6877,COMMUNITY CITYWIDE ED COUNCIL,Public,Office,4360 BROADWAY  4TH FL  ROOM 430,10033,-73.933958,40.853431
6886,P186X  @ NY PSYCH. INSTITUTE,Public,School,1051 RIVERSIDE DRIVE,10032,-73.944175,40.842402
6887,ALC- HIGHBRIDGE,Public,School,80 AUDUBON AVENUE,10032,-73.937962,40.841216
6888,REGION OFFICE TEN,Public,Office,4360 BROADWAY,10033,-73.933958,40.853431
6889,ALC-LAURELL HILL,Public,School,601 WEST 183RD STREET  3RD FLOOR,10032,-73.932993,40.850657
6966,DIST.OFF. LYFE PROG.CITYWIDE,Public,Office,4360 BROADWAY  ROOM 424,10033,-73.933958,40.853431
6971,ALC-WASHINGTON HEIGHTS,Public,School,601 WEST 183RD STREET  3RD FLOOR,10032,-73.932993,40.850657
6986,CFN # 407,Public,Office,4360 BROADWAY  4TH FLOOR,10033,-73.933958,40.853431
6987,CFN # 403,Public,Office,4360 BROADWAY  ROOM 529,10033,-73.933958,40.853431
6988,DIST-79 PROGRAMS,Public,Office,4360 BROADWAY  ROOM 427,10033,-73.933958,40.853431
6989,LANG YOUTH MEDICAL PROG.  S,Public,Office,122 WEST 168  STREET,10032,-73.936602,40.839448
6994,ALC-CLOISTERS,Public,School,601 WEST 183RD STREET  2ND FLOOR,10032,-73.932993,40.850657
6999,CUNY /OAA SIELP OF NEW YORK  S,Public,Office,138TH STREET & CONVENT AVENUE,10031,-73.949998,40.820042
7001,PS 1,Public,School,335 EAST 152ND STREET,10451,-73.918989,40.818889
7002,P469X @ P 855X,Public,School,577 EAST 139 STREET,10454,-73.916378,40.807334
7003,ACADEMIC LEADERSHIP CHARTER,Charter,School,470 Jackson Avenue,10455,-73.909709,40.811137
7004,P469X @ P 277,Public,School,519 ST ANN'S AVENUE,10455,-73.913932,40.813597
7005,PS 5,Public,School,564 JACKSON AVENUE,10455,-73.908794,40.813697
7006,Storefront Academy Charter Sch,Charter,School,416 Willis Avenue,10454,-73.919889,40.813034
7007,South Bronx Early Academy Char,Charter,School,639 Saint Ann's Avenue,10455,-73.911847,40.81655
7008,EARLY COLLEGE @ HOSTOS CC (WS),Public,School,475 GRAND CONCOURSE,10451,-73.927845,40.817634
7009,P751M @ FOOD FEST,Public,School,500 EAST 132ND STREET,10454,-73.921864,40.80349
7011,KIPP College Prep High School,Charter,School,201 East 144th Street,10451,-73.926451,40.816163
7012,P2G @ BRONX YOUTH CTR,Public,School,424 EAST 147TH STREET 4TH FL,10455,-73.917762,40.814344
7013,South BX Community Charter HS,Charter,School,890 Washington Avenue,10451,-73.91194,40.823702
7014,P188X@Mott Haven (inclusion),Public,School,730 CONCOURSE VILLAGE WEST,10451,-73.923667,40.822394
7025,PS 25,Public,School,811 EAST 149TH STREET,10455,-73.906036,40.812695
7029,PS 29,Public,School,758 COURTLAND AVENUE,10451,-73.917066,40.821711
7030,PS 30,Public,School,510 EAST 141 STREET,10454,-73.917637,40.809305
7031,PS 31 AT IS 151,Public,School,250 EAST 156 STREET,10455,-73.921688,40.823094
7043,PS 43,Public,School,165 BROWN PLACE,10454,-73.921288,40.806384
7049,PS 49,Public,School,383 EAST 139TH STREET,10454,-73.923066,40.810158
7065,PS 65,Public,School,677 EAST 141 STREET,10454,-73.912684,40.807402
7151,IS 151,Public,School,250 EAST 156TH STREET,10451,-73.921688,40.823094
7154,PS 154,Public,School,333 EAST 135TH STREET,10454,-73.926064,40.808058
7155,P754X @ BX SCH FOR CAREER DEV,Public,School,470 JACKSON AVENUE,10455,-73.909709,40.811137
7157,PS 157,Public,School,757 CAULDWELL AVENUE,10456,-73.908654,40.819272
7161,PS 161,Public,School,628 TINTON AVENUE,10455,-73.905424,40.814889
7162,IS 162,Public,School,600 ST ANN'S AVENUE,10455,-73.912498,40.814853
7179,PS 179 SCH. OF INTER.CULTURES,Public,School,468 EAST 140TH STREET,10454,-73.919964,40.809472
7208,NEW VISIONS HS FOR HUMANTIES,Charter,School,455 SOUTHERN BLVD,10455,-73.907195,40.810601
7221,South Bronx Preparatory 221,Public,School,360 EAST 145 STREET,10454,-73.920839,40.813921
7223,MS 223 LAB SCH OF FIN. & TECH,Public,School,360 EAST 145TH STREET,10454,-73.920839,40.813921
7224,MS 224 SCI SCH EXPL & DISCOVER,Public,School,345 BROOK AVENUE,10454,-73.917886,40.810067
7233,FAMILY LIFE ACAD.CHARTER II,Charter,School,296 EAST 140TH STREET,10454,-73.925131,40.811661
7256,HEKETI COMM CHARTER SCHOOL,Charter,School,403 CONCORD AVENUE,10454,-73.909729,40.80901
7259,HEALTH ED.RES. OCCUPATIONS HS,Public,School,455 SOUTHERN BLVD,10455,-73.907195,40.810601
7277,P.S.277,Public,School,519 ST.ANN'S AVENUE,10455,-73.913382,40.813743
7296,SOUTH BX ACAD APPLIED MEDIA,Public,School,778 FOREST AVENUE,10456,-73.90583,40.818847
7298,ACADEMY OF PUBLIC RELATIONS,Public,School,778 FOREST AVENUE,10459,-73.90583,40.818847
7327,M.S.327 (DIST. 9  H.O.),Public,Office,350 GERARD AVENUE,10451,-73.930278,40.815944
7334,INTERNATIONAL COMMUNITY HS,Public,School,345 BROOK AVENUE,10454,-73.917886,40.810067
7339,KIPP NYC COLLEGE PREP-INFINITY,Charter,School,201 EAST 144TH STREET,10451,-73.926451,40.816163
7343,ACAD OF APPLIED MATH & TECH,Public,School,345 BROOK AVENUE,10454,-73.917886,40.810067
7010,RESTART @JILL CHAIFETZ HS,Public,School,778 FOREST AVENUE,10456,-73.90583,40.818847
7357,KIPP NYC COLLEGE PREP-AMP,Charter,School,201 EAST 144TH STREET,10451,-73.926451,40.816163
7359,CONCOURSE VILLAGE ELEM SCHOOL,Public,School,750 CONCOURSE VILLAGE WEST,10451,-73.923225,40.823145
7364,SOUTH BRONX CLASSICAL II,Charter,School,333 EAST 135TH STREET,10454,-73.926064,40.808058
7369,YOUNG LEADERS ELEM SCHOOL,Public,School,468 EAST 140TH STREET,10454,-73.919964,40.809472
7379,JILL CHAIFETZ TRANSFER SCHOOL,Public,School,778 FOREST AVENUE,10456,-73.90583,40.818847
7381,BRONX HAVEN HS,Public,School,333 EAST 151ST STREET,10451,-73.919959,40.81833
7388,BRILLA COLLEGE PREP CHARTER,Charter,School,413 EAST 144TH STREET,10454,-73.91952,40.81274
7401,HOSTOS-LINCOLN ACAD HS/IS,Public,School,600 ST ANN'S AVENUE,10455,-73.912498,40.814853
7412,UNIVERSITY HEIGHTS HS,Public,School,701 ST. ANN'S AVENUE,10455,-73.911081,40.818379
7434,P168X @ I203X,Public,School,339 MORRIS AVENUE,10451,-73.925537,40.813489
7444,"P754X @ BX,LAW GOV. & JUSTI",Public,School,244 EAST 163 STREET,10451,-73.918728,40.827538
7449,P017X @ 07298,Public,School,778 FOREST AVENUE,10456,-73.90583,40.818847
7454,P723X @ BX CHILD PSYCH & COMMM,Public,School,595 GERARD AVENUE,10452,-73.928783,40.820465
7456,Y.A.B.C.@ ALFRED E. SMITH HS,Public,School,333 EAST 151ST STREET,10451,-73.919959,40.81833
7458,BX CHARTER SCH.FOR CHILDREN,Charter,School,388 WILLIS AVENUE,10454,-73.920308,40.812467
7469,P176X @ BRONX YMCA,Public,School,468 EAST 140TH STREET,10454,-73.919964,40.809472
7470,PASSAGES ACADEMY (BX),Public,School,426 WILLIS AVENUE,10454,-73.919727,40.813253
7471,AMERICAN DREAM CHARTER SCHOOL,Charter,School,510 EAST 141 STREET,10454,-73.917637,40.809305
7475,P017X @ P043X,Public,School,165 BROWN PLACE,10454,-73.921288,40.806384
7480,P017X @ P161X,Public,School,628 TINTON AVE,10455,-73.905424,40.814889
7488,POWERS STH PROG.-C/O PS 30,Public,Office,510 EAST 141 STREET,10454,-73.917637,40.809305
7492,P723X @ PS 49X,Public,School,383 EAST 139 ST,10454,-73.923066,40.810158
7494,P352X @ P179X,Public,School,468 EAST 140 ST,10454,-73.919964,40.809472
7497,P010X  @ I162X,Public,School,600 ST ANN'S AVE,10455,-73.912498,40.814853
7498,HEALTH OPPORTUNITIES HS,Public,School,350 GERARD AVE,10451,-73.930278,40.815944
7499,COMM.SCH FOR SOCIAL JUSTICE,Public,School,350 GERARD AVENUE,10451,-73.930278,40.815944
7519,ALFRED E. SMITH HS,Public,School,333 EAST 151ST STREET,10451,-73.919959,40.81833
7520,MOTT HAVEN VILLAGE PREP SCHOOL,Public,School,701 ST ANN'S AVENUE,10455,-73.911081,40.818379
8006,P035M @ GED-ADOL SKILLS CTR,Public,School,975 KELLY STREET,10459,-73.895981,40.822041
7522,BX DESIGN AND CONST.ACADEMY,Public,School,333 EAST 151ST STREET,10451,-73.919959,40.81833
7527,BRONX LEADERSHIP ACAD.II H.S.,Public,School,730 CONCOURSE VILLAGE WEST,10451,-73.923667,40.822394
7534,UNIVERSITY PREP CHARTER HS,Charter,School,600 ST. ANN'S AVENUE,10455,-73.912498,40.814853
7547,THE NEW EXPLORERS HS,Public,School,730 CONCOURSE VILLAGE WEST,10451,-73.923667,40.822394
7548,ACADEMY FOR CAREER IN SPORTS,Public,School,730 CONCOURSE VILLAGE WEST,10451,-73.923667,40.822394
7551,THE BRONX ACADEMY OF LETTERS,Public,School,339 MORRIS AVENUE,10451,-73.925537,40.813489
7554,NYC MONTESSORI CHARTER SCHOOL,Charter,School,423 EAST 138TH STREET,10454,-73.921895,40.808785
7557,MOTT HAVEN COMM H.S.,Public,School,455 SOUTHERN BLVD,10455,-73.907195,40.810601
7385,PERFORMANCE SCHOOL,Public,School,750 CONCOURSE VILLAGE WEST,10451,-73.923225,40.823145
7560,KIPP CHARTER ACADEMY,Charter,School,250 EAST 156 STREET  ROOM 418,10451,-73.921688,40.823094
7571,P2G @ BRONX NEON,Public,School,198 EAST 161TH STREET,10451,-73.921475,40.826403
7573,RESTART MS @ MOTT HAVEN HS,Public,School,455 SOUTHERN BLVD,10455,-73.907195,40.810601
7587,"NYC CHARTER HS AGR,ENG & CONST",Charter,School,838 BROOK AVENUE,10451,-73.910785,40.821982
7591,KIPP NYC COLL PREP-KIPP ACAD,Charter,School,201 EAST 144TH STREET,10451,-73.926451,40.816163
7597,MOTT HAVEN CHARTER SCHOOL,Charter,School,170 BROWN PLACE,10454,-73.921061,40.806345
7644,P017X @ P 385,Public,School,750 CONCOURSE VILLAGE WEST,10451,-73.923225,40.823145
7657,KIPP ACADEMY ELEM,Charter,School,730 CONCOURSE VILLAGE WEST,10451,-73.923667,40.822394
7661,P754X @ P 379,Public,School,778 FOREST AVENUE,10456,-73.90583,40.818847
7668,EAST SIDE HOUSE SETTLEMENT,Nonsectarian,School,201 ST ANN'S AVENUE,10454,-73.918269,40.80586
7672,FAMILY LIFE ACADEMY SCHOOL 111,Charter,School,296 EAST 140TH STREET,10454,-73.925131,40.811661
7682,SUCCESS ACADEMY BRONX 1,Charter,School,339 MORRIS AVENUE 2nd FLOOR,10451,-73.925537,40.813489
7684,ACADEMIC LEADERSHIP CHARTER,Charter,School,677 EAST 141 STREET,10454,-73.912684,40.807402
7687,P017X @ I 298,Public,School,778 FOREST AVENUE,10456,-73.90583,40.818847
7688,SOUTH BRONX CHARTER SCHOOL,Charter,School,164 BRUCKNER BLVD,10454,-73.918043,40.802966
7697,P188X@ H790 MOTT HAVEN HS,Public,School,730 CONCOURSE VILLAGE WEST,10451,-73.923667,40.822394
7701,IMMACULATE CONCEPTION SCH,Parochial,School,378 EAST 151ST STREET,10455,-73.917991,40.817647
7704,ST ANSELM SCHOOL,Parochial,School,685 TINTON AVENUE,10455,-73.90525,40.816319
7706,ST LUKE SCHOOL,Parochial,School,608 EAST 139TH STREET,10454,-73.915729,40.806866
7708,STS PETER AND PAUL SCH,Parochial,School,838 BROOK AVENUE,10451,-73.910785,40.821982
7515,CROTONA ACADEMY HS,Public,School,639 ST ANN'S AVENUE,10455,-73.911847,40.81655
7715,CARDINAL HAYES HS,Parochial,School,650 GRAND CONCOURSE,10451,-73.925909,40.820734
7723,P723X@BX CHILD PSYCH -COMM IDT,Public,School,595 GERARD AVENUE,10452,-73.928783,40.820465
7726,KIPP NYC COLL PREP-KIPP STAR,Charter,School,201 EAST 144TH STREET,10451,-73.926451,40.816163
7794,THE NEW LIFE SCHOOL HS,Nonsectarian,School,831 EAGLE AVENUE,10456,-73.908907,40.821293
7800,P754X @ LINCOLN HOSPITAL,Public,School,23 EAST 149TH STREET,10459,-73.931795,40.819682
7818,BX GLOBAL LRNG INST FOR GIRLS,Charter,School,750 CONCOURSE VILLAGE WEST,10451,-73.923225,40.823145
7987,NASA/STEP PROYECTO ACCESS 'S',Other Religion,School,500 GRAND CONCOURSE  ROOM B-420,10451,-73.927419,40.817888
8001,GRAND CONCOURSE ACAD CHARTER,Charter,School,909 Hutchinson River Parkway,10465,-73.836827,40.825836
8002,P2G @ ADLAI STEVENSON HS,Public,School,1980 LAFAYETTE AVENUE,10473,-73.856151,40.822212
8003,CO-OP TECH,Public,School,965 LONGWOOD AVENUE,10459,-73.898159,40.817577
8004,P723X @ YMCA,Public,School,3041 BRUCKNER BLVD,10461,-73.825825,40.83574
8005,P721X @ PS 293,Public,School,3000 EAST TREMONT AVENUE,10461,-73.838572,40.840628
8014,PS 14,Public,School,3041 BRUCKNER BLVD,10461,-73.825825,40.83574
8036,PS 36,Public,School,1070 CASTLE HILL AVENUE,10473,-73.850325,40.829356
8048,PS 48,Public,School,1290 SPOFFORD AVENUE,10474,-73.886923,40.814299
8062,PS 62,Public,School,660 FOX STREET,10455,-73.900594,40.813954
8069,PS 69,Public,School,560 THIERIOT AVENUE,10473,-73.860805,40.816706
8071,PS/MS 71,Public,School,3040 ROBERTS AVENUE,10461,-73.829786,40.845718
8072,PS 72,Public,School,2951 DEWEY AVE,10465,-73.818292,40.822672
8075,PS 75 RESEARCH & DISCOVERY,Public,School,984 FAILE STREET,10459,-73.889331,40.822714
8093,PS 93,Public,School,1535 STORY AVENUE,10473,-73.876941,40.821848
8100,PS 100 ISAAC CLASON,Public,School,800 TAYLOR AVENUE,10473,-73.862973,40.821829
8101,P010X @ P304X,Public,School,2750 LAFAYETTE AVENUE,10465,-73.829701,40.827404
8107,PS 107,Public,School,1695 SEWARD AVENUE,10473,-73.868391,40.818542
8119,PS 119,Public,School,1075 PUGSLEY AVENUE,10472,-73.856667,40.828498
8123,PS/IS 123,Public,School,1025 MORRISON AVENUE,10472,-73.873767,40.825387
8125,IS 125,Public,School,1111 PUGSLEY AVENUE,10472,-73.856832,40.829218
8130,PS 130,Public,School,750 PROSPECT AVENUE,10455,-73.902326,40.817697
8131,IS 131,Public,School,885 BOLTON AVENUE,10473,-73.859763,40.823511
8138,PS 138,Public,School,2060 LAFAYETTE AVENUE,10473,-73.853375,40.822587
8140,PS 140,Public,School,916 EAGLE AVENUE,10456,-73.907871,40.823218
8146,CS 146,Public,School,968 CAULDWELL AVENUE,10456,-73.906089,40.824901
8152,THE EVERGREEN SCHOOL,Public,School,1007 EVERGREEN AVENUE,10472,-73.880134,40.824032
8182,PS 182,Public,School,601 STICKBALL BLVD.,10473,-73.856405,40.818217
8202,NEW VISIONS HS FOR MATH & SCI,Charter,School,900 TINTON AVENUE,10456,-73.903386,40.821813
8269,BX STUDIO WRITERS-ARTISTS,Public,School,928 SIMPSON STREET,10459,-73.893092,40.820492
8301,MS 301,Public,School,890 CAULDWELL AVENUE,10456,-73.907103,40.822443
8302,MS 302,Public,School,681 KELLY STREET,10455,-73.902179,40.815501
8304,PS 304 EARLY CHILDHOOD LAB SCH,Public,School,2750 LAFAYETTE AVENUE,10465,-73.829701,40.827404
8320,PELHAM LAB HS,Public,School,3000 EAST TREMONT AVENUE,10461,-73.838572,40.840628
8332,HOLCOMBE L.RUCKER COMM.RES.,Public,School,965 LONGWOOD AVENUE,10459,-73.898159,40.817577
8333,THE MUSEUM SCHOOL PS 333,Public,School,888 REV.JAMES POLITE AVENUE,10459,-73.898808,40.820207
8335,THE ACAD.OF ART PS 335,Public,School,888 REV.JAMES A. POLITE,10457,-73.898808,40.820207
8345,HYDE LEADERSHIP CHARTER SCH,Charter,School,730 BRYANT AVENUE,10474,-73.885667,40.815482
8348,SCHUYLERVILLE PREPARATORY HS,Public,School,3000 EAST TREMONT AVENUE,10461,-73.838572,40.840628
8349,BRONX RIVER H.S.,Public,School,3000 EAST TREMONT AVENUE,10461,-73.838572,40.840628
8362,ICAHN CHARTER SCHOOL #7,Charter,School,1535 STORY AVENUE,10473,-73.876941,40.821848
8367,ARCHIMEDES ACAD.MATH-SCI-TECH,Public,School,456 WHITE PLAINS ROAD,10473,-73.856452,40.814728
8371,THE URBAN INST OF MATHEMATICS,Public,School,650 HOLLYWOOD AVE,10465,-73.81832,40.826553
8375,THE BRONX MATH PREP SCHOOL,Public,School,456 WHITE PLAINS ROAD 4TH FLOOR,10473,-73.856452,40.814728
8376,THE ANTONIA PANTOJA PREP ACAD,Public,School,1980 LAFAYETTE AVENUE,10473,-73.856151,40.822212
8377,BRONX COMMUNITY HS,Public,School,1980 LAFAYETTE AVENUE,10473,-73.856151,40.822212
8380,SUCCESS ACADEMY BRONX 3,Charter,School,968 CAULDWELL AVENUE,10456,-73.906089,40.824901
8392,BRONX DELTA SCHOOL,Public,School,650 HOLLYWOOD AVENUE,10465,-73.81832,40.826553
8408,HOME INSTRUCTIONS SCH- BRONX,Public,Office,3450 EAST TREMONT AVENUE,10465,-73.827574,40.832077
8410,P352X @ P075X,Public,School,984 FAILE ST,10459,-73.889331,40.822714
8413,WOMEN'S ACAD OF EXCELLENCE,Public,School,456 WHITE PLAINS ROAD,10473,-73.856452,40.814728
8415,MONTEFIORE HOSPITAL,Nonsectarian,School,3450 DEKALB AVENUE,10467,-73.88173,40.880945
8420,P188X @ P301X,Public,School,890 CAULDWELL AVE,10456,-73.907103,40.822443
8444,SCH FOR INQUIRY & SOCIAL JUST.,Public,School,1025 MORRISON AVE.,10472,-73.873767,40.825387
8446,P721X @ BRONX YMCA - CASTLE HI,Public,School,2 CASTLE HILL AVENUE,10473,-73.846213,40.811701
8447,P186X @ BRONX STUDIO,Public,School,928 SIMPSON STREET,10459,-73.893092,40.820492
8448,SOUNDVIEW ACADEMY,Public,School,885 BOLTON AVENUE,10473,-73.859763,40.823511
8449,PS 119 AX,Public,School,1111 PUGSLEY AVENUE,10472,-73.856832,40.829218
8451,PS 152 AX,Public,School,1025 MORRISON AVENUE,10472,-73.873767,40.825387
8452,P010X  @ P152X,Public,School,1007 Evergreen Avenue,10472,-73.880134,40.824032
8453,P017X @ IS 125,Public,School,1111 PUGSLEY AVENUE,10472,-73.856832,40.829218
8454,BX CHARTER SCH FOR THE ARTS,Charter,School,950 LONGFELLOW AVENUE,10474,-73.88645,40.821456
8455,BOYS PREP CHARTER SCH OF NY,Charter,School,1695 SEWARD AVENUE,10473,-73.868391,40.818542
8460,P721X @ BRONX Y.M.C.A,Public,School,21-25 GLEBE AVENUE,10462,-73.85046,40.835059
8461,P721X @ MARITIME COLLEGE,Public,School,FORT SCHUYLER,10465,-73.796332,40.807374
8464,P721X @ H.H.LEHMAN HS,Public,School,3000 EAST TREMONT AVENUE,10461,-73.838572,40.840628
8465,MS101,Public,School,2750 LAFAYETTE AVENUE,10465,-73.829701,40.827404
8466,HOSPITAL SCHOOLS,Public,School,3450 EAST TREMONT AVENUE,10465,-73.827574,40.832077
8467,MOTT HALL COMMUNITY SCHOOL,Public,School,650 HOLLYWOOD AVENUE,10465,-73.81832,40.826553
8468,P352X @ I201X,Public,School,730 BRYANT AVE,10474,-73.885667,40.815482
8470,P723X@P014(SUMMER),Public,School,2951 DEWEY AVE,10465,-73.818292,40.822672
8366,MS 366 ACAD CIVIC ENGAGEMENT,Public,School,650 HOLLYWOOD AVE,10465,-73.81832,40.826553
8487,GIRLS PREP BRONX-MS,Charter,School,890 CAULDWELL AVENUE,10456,-73.907103,40.822443
8489,THE EQUALITY CHARTER HS,Charter,School,715 CASTLE HILL AVENUE,10473,-73.848706,40.821438
8495,P721X @ MECHLAR HALL SR.CTR,Public,School,2158 WATSON AVENUE,10472,-73.851863,40.829509
8497,HUNT'S POINT MS 424,Public,School,730 BRYANT AVENUE,10474,-73.885667,40.815482
8498,P186X@ PS 140,Public,School,916 EAGLE AVENUE,10456,-73.907871,40.823218
8516,PABLO NERUDA ACADEMY,Public,School,1980 LAFAYETTE AVENUE,10473,-73.856151,40.822212
8517,MILLENNIUM ART ACADEMY,Public,School,1980 LAFAYETTE AVENUE,10473,-73.856151,40.822212
8518,THE BRONX GUILD HS,Public,School,1980 LAFAYETTE AVENUE,10473,-73.856151,40.822212
8519,INST.FOR LAW & PUBLIC POLICY,Public,School,1440 STORY AVENUE,10473,-73.881468,40.821068
8524,H H LEHMAN HS,Public,School,3000 EAST TREMONT AVENUE,10461,-73.838572,40.840628
8530,BANANA KELLY COM. LERNG. CNTR.,Public,School,965 LONGWOOD AVE. 3RD FLOOR,10459,-73.898159,40.817577
8537,BRONX ARENA HS TRANSFER,Public,School,1440 STORY AVENUE,10473,-73.881468,40.821068
8547,SOUTH BX CLASSICAL CHARTER SCH,Charter,School,977 FOX STREET,10459,-73.894001,40.822437
8551,Y.A.B.C.@ BX COMM HS,Public,School,1980 LAFAYETTE AVENUE,10473,-73.856151,40.822212
8555,Y.A.B.C.@ LEHMAN HS,Public,School,3000 EAST TREMONT AVENUE,10461,-73.838572,40.840628
8558,WESTCHESTER SQUARE ACADEMY,Public,School,3000 EAST TREMONT AVENUE,10461,-73.838572,40.840628
8560,SECOND OPPORTUNITY SCH-WILDCAT,Public,School,1201 LAFAYETTE AVE,10474,-73.891054,40.816501
8561,BRONX COMPASS HS,Public,School,1980 LAFAYETTE AVENUE,10461,-73.856151,40.822212
8562,BLUEPRINT MIDDLE SCHOOL,Public,School,1111 PUGSLEY AVENUE,10472,-73.856832,40.829218
8564,RENAISSANCE HS OF MUSICAL THEA,Public,School,3000 EAST TREMONT AVENUE,10461,-73.838572,40.840628
8570,BRONX BRIDGES HIGH SCHOOL,Public,School,1980 LAFAYETTE AVENUE,10473,-73.856151,40.822212
8574,ALC - LAFAYETTE ACADEMY,Public,School,1201 LAFAYETTE AVENUE 3RD FLOOR,10474,-73.891054,40.816501
8579,YOUTH DEVELOP.ACAD.@ PAL,Public,School,991 LONGWOOD AVENUE,10459,-73.897606,40.817247
8587,ADOL SKILLS CTR- RESTART,Public,School,975 KELLY STREET,10459,-73.895981,40.822041
8590,SCH FOR TOURISM & HOSPITALITY,Public,School,900 TINTON AVENUE,10456,-73.903386,40.821813
8607,WILDCAT ANNEX,Charter,School,486 HOWE AVENUE,10473,-73.848364,40.81628
8647,CSE 2,Public,Office,3450 EAST TREMONT AVENUE 2ND FLOOR,10465,-73.827574,40.832077
8667,P2G @ LEHMAN HS PM,Public,School,3000 EAST TREMONT AVENUE,10461,-73.838572,40.840628
8688,GIRLS PREP CHARTER SCHOOL,Charter,School,681 KELLY STREET,10455,-73.902179,40.815501
8704,MSGR SCANLAN HS,Parochial,School,915 HUTCHINSON RIVER PARKWAY,10465,-73.836808,40.825733
8705,PRESTON HS,Parochial,School,2780 SCHURZ AVENUE,10465,-73.819353,40.814181
8706,GREEK AMERICAN INSTITUTE,Christian,School,3573 BRUCKNER BLVD,10461,-73.828101,40.848964
8711,VILLA MARIA ACADEMY,Parochial,School,3335 COUNTRY CLUB ROAD,10465,-73.817161,40.841241
8712,ST ATHANASIUS SCHOOL,Parochial,School,830 SOUTHERN BLVD,10459,-73.895497,40.816882
8713,HOLY FAMILY SCHOOL,Parochial,School,2169 BLACKROCK AVENUE,10472,-73.85152,40.828984
8715,OUR LADY OF ASSUMPTION SCH00L,Parochial,School,1617 PARKVIEW AVENUE,10461,-73.827102,40.845433
8716,ST THERESA SCHOOL,Parochial,School,2872 ST THERESA AVENUE,10461,-73.833252,40.849408
8717,HOLY CROSS SCHOOL,Parochial,School,1846 RANDALL AVENUE,10473,-73.860677,40.817228
8718,ST BENEDICT SCHOOL,Parochial,School,1016 EDISON AVENUE,10465,-73.82546,40.832207
8719,ST FRANCES DECHANTAL SCH,Parochial,School,2962 HARDING AVENUE,10465,-73.813453,40.816368
8721,P721X @ PROVIDENCE NURSING HM,Public,School,3302 WATERBURY AVE,10465,-73.818554,40.837092
8750,ST IGNATIUS ACADEMY,Parochial,School,740 MANIDA STREET,10474,-73.888478,40.815239
8754,P754X@ Adolescent Skills Cente,Public,School,975 Kelly Street,10459,-73.895981,40.822041
8800,P754X @ P 10,Public,School,2750 LAFAYETTE AVENUE,10465,-73.829701,40.827404
8861,SUCCESS ACAD CHARTER SCH BX-4,Charter,School,885 BOLTON AVENUE,10473,-73.859763,40.823511
8866,ALC- PAL LONGWOOD,Public,School,991 LONGWOOD AVENUE,10459,-73.897606,40.817247
8889,ALC @ STEVENSON HS,Public,School,1980 LAFAYETTE AVENUE,10473,-73.856151,40.822212
8901,ST JOSEPH SCH FOR THE DEAF,Nonsectarian,School,1000 HUTCHINSON RIVER PARKWAY,10465,-73.836036,40.827068
8966,ALC @ BX EDUC CTR,Public,School,1201 LAFAYETTE AVENUE LEVEL C,10474,-73.891054,40.816501
8994,ALC-JANE ADDAMS HS,Public,School,900 TINTON AVENUE,10456,-73.903386,40.821813
9000,CSD # 9 PROGRAMS,Public,Office,ONE FORDHAM PLAZA  8TH FLOOR,10452,-73.890004,40.861071
9001,METROPOLITAN LIGHTHOUSE CHARTE,Charter,School,180 WEST 165TH STREET,10452,-73.929775,40.834517
9003,South Bronx Classical III,Charter,School,3490 Third Avenue,10456,-73.906064,40.830309
9004,CS 4,Public,School,1701 FULTON AVENUE,10456,-73.897977,40.84142
9005,ICAHN CHARTER SCHOOL #6 AX,Charter,School,1525 Brook Ave,10457,-73.905114,40.838692
9006,P2G @ ARGUS,Public,School,2038  DAVIDSON AVENUE,10453,-73.90866,40.853494
9007,COMM EDUC COUNCIL #9,Public,Office,1245 WASHINGTON AVENUE ROOM 136,10456,-73.906515,40.832189
9009,P017X @ P404,Public,School,1100 BOSTON ROAD,10456,-73.904551,40.82746
9010,ACACIA HUNTS POINT ANNEX,Public,Office,300 EAST 175TH STREET,10457,-73.904558,40.84663
9011,CES 11,Public,School,1257 OGDEN AVENUE,10452,-73.925806,40.839407
9012,P754X @ REBEKAH REHAB,Public,School,1070 HAVEMEYER AVENUE,10462,-73.847388,40.82987
9013,P2G @ THE BRONX EOC,Public,School,1666 BATHGATE AVENUE,10457,-73.900334,40.840948
9022,CIS 22,Public,School,270 EAST 167TH STREET,10456,-73.914126,40.83311
9028,CES 28,Public,School,1861 ANTHONY AVENUE,10457,-73.903622,40.848071
9035,PS 35 FRANZ SIGEL,Public,School,261 EAST 163RD STREET,10451,-73.91763,40.827374
9042,CES 42 THE CLAREMONT,Public,School,1537 WASHINGTON AVE,10456,-73.903083,40.838315
9053,CES 53,Public,School,360 EAST 168TH STREET,10456,-73.910999,40.832641
9055,CES 55,Public,School,450 ST PAULS PLACE,10456,-73.904995,40.83632
9058,CES 58,Public,School,459 EAST 176 STREET,10457,-73.899226,40.846232
9063,CES 63,Public,School,1261 FRANKLIN AVENUE,10456,-73.902841,40.831018
9070,CES 70,Public,School,1691 WEEKS AVENUE,10457,-73.90772,40.844249
9073,CES 73,Public,School,1020 ANDERSON AVENUE,10452,-73.926674,40.832772
9088,CES 88,Public,School,1340 SHERIDAN AVENUE,10456,-73.913491,40.837235
9109,CES 109,Public,School,1771 POPHAM AVENUE,10457,-73.918597,40.851472
9114,PS 114,Public,School,1155 CROMWELL AVENUE,10452,-73.923169,40.834805
9117,CIS 117,Public,School,1865 MORRIS AVENUE,10453,-73.908526,40.848529
9126,CES 126,Public,School,175 WEST 166TH STREET,10452,-73.928283,40.835854
9132,CES 132,Public,School,1245 WASHINGTON AVENUE,10456,-73.906515,40.832189
9133,ICAHN CHARTER SCHOOL #6,Charter,School,1701 FULTON AVENUE,10457,-73.897977,40.84142
9145,CIS 145,Public,School,1000 TELLER AVENUE,10456,-73.914295,40.827894
9163,CES 163,Public,School,2075 WEBSTER AVENUE,10457,-73.898607,40.851733
9170,ECC 170,Public,School,1598 TOWNSEND AVENUE,10452,-73.91352,40.844274
9171,ECC 171,Public,School,1717 FULTON AVENUE,10456,-73.89779,40.841753
9173,ECC 173,Public,School,1871 WALTON AVE,10453,-73.909628,40.848912
9177,MOTT HALL CHARTER SCHOOL,Charter,School,1260 FRANKLIN AVENUE,10456,-73.902627,40.830945
9199,PS 199X THE SHAKESPEARE SCHOOL,Public,School,1449 SHAKESPEARE AVENUE,10452,-73.920651,40.842977
9204,PS 204,Public,School,1780 MARTIN LUTHER KING JR BLVD,10453,-73.915667,40.850074
9218,CIS/CES 218,Public,School,1220 GERARD AVENUE,10452,-73.919939,40.83581
9219,CIS 219/ VENTURE ACADEMY,Public,School,3630 THIRD AVENUE,10456,-73.904273,40.83366
9229,CIS 229,Public,School,275 HARLEM RIVER PARK BRIDGE,10453,-73.92141,40.8526
9232,CIS 232,Public,School,1700  MACOMBS ROAD,10453,-73.916001,40.849223
9241,Urban Assembly Math & Science,Public,School,1595 bathgate avenue,10457,-73.901416,40.83926
9250,EXIMIUS COLLEGE PREP ACAD.,Public,School,1363 FULTON AVENUE,10456,-73.902588,40.833697
9252,MOTT HALL HS BX,Public,School,1595 BATHGATE AVENUE,10457,-73.901416,40.83926
9260,BRONX CTR FOR SCI & MATH,Public,School,1363 FULTON AVENUE,10456,-73.902588,40.833697
9263,VALIDUS PREPARATORY ACADEMY,Public,School,1595 BATHGATE AVE,10457,-73.901416,40.83926
9274,THE NEW AMERICAN ACADEMY,Public,School,275 HARLEM RIVER PARK BRIDGE,10453,-73.92141,40.8526
9276,THE LEADERSHIP INSTITUTE,Public,School,1701 FULTON AVENUE,10457,-73.897977,40.84142
9294,THE WALTON AVENUE SCHOOL,Public,School,1425 WALTON AVENUE,10452,-73.915658,40.840133
9303,MS 303 LDR & COMM.SER.ACAD,Public,School,1700 MACOMBS ROAD,10453,-73.916001,40.849223
9064,CES 64,Public,School,1425 WALTON AVENUE,10452,-73.915658,40.840133
9311,LUCERO ELEMENTARY SCHOOL,Public,School,1425 WALTON AVENUE,10452,-73.915658,40.840133
9313,CIS 313,Public,School,1600 WEBSTER AVENUE,10457,-73.904661,40.840846
9324,BX EARLY COLLEGE ACADEMY,Public,School,250 EAST 164 STREET,10456,-73.917718,40.82863
9327,COMPREHENSIVE MODEL SCH PROJ.,Public,School,1501 JEROME AVENUE,10452,-73.916172,40.84253
9328,New Millenium Business Acad,Public,School,1000 Teller av,10456,-73.914295,40.827894
9329,DREAM YARD PREP SCHOOL,Public,School,240 EAST 172 STREET,10457,-73.910951,40.840351
9339,CIS 339,Public,School,1600 WEBSTER AVENUE,10457,-73.904661,40.840846
9350,NEW DIRECTIONS SECONDARY SCH,Public,School,240 EAST 172 STREET,10457,-73.910951,40.840351
9361,THE HIGHBRIDGE GREEN SCHOOL,Public,School,200 WEST 167TH STREET,10452,-73.927979,40.83819
9365,ACAD.FOR LANGUAGE & TECHNOLOGY,Public,School,1700 MACOMBS ROAD,10453,-73.916001,40.849223
9380,SUCCESS ACADEMY BX 3,Charter,School,1000 TELLER AVENUE,10456,-73.914295,40.827894
9402,P754X @ DAUGHTERS OF JACOB,Public,School,1160 TELLER AVENUE,10456,-73.912076,40.831271
9412,BRONX HS OF BUSINESS,Public,School,240 EAST 172 STREET,10457,-73.910951,40.840351
9413,BRONX HS FOR MEDICAL SCIENCE,Public,School,240 EAST 172 STREET,10457,-73.910951,40.840351
9415,P723X @ P 927,Public,School,1455 WEBSTER AVENUE,10456,-73.906851,40.83731
9419,BRONX ACAD OF PROMISE CHARTER,Charter,School,1349 INWOOD AVENUE,10452,-73.919694,40.839518
9443,THE FAMILY SCHOOL,Public,School,1116 SHERIDAN AVENUE,10456,-73.91787,40.831957
9449,GRANT AVENUE ELEM SCHOOL,Public,School,250 EAST 164 STREET,10456,-73.917718,40.82863
9451,CARL C.ICAHN CHARTER SCHOOL,Charter,School,1525 BROOK AVENUE,10457,-73.905114,40.838692
9454,SCI-TECH ACAD:MOTT HALL SCH,Public,School,250 EAST 164 STREET,10456,-73.917718,40.82863
9455,P010X @ PS 240,Public,School,1501 JEROME AVENUE,10452,-73.916172,40.84253
9236,CES 236 LANGSTON HUGHES,Public,School,499 EAST 175TH STREET,10457,-73.898492,40.844547
9457,SHERIDAN ACAD PS 457,Public,School,1116 SHERIDAN AVENUE,10456,-73.91787,40.831957
9458,EAGLE ACAD. FOR YOUNG MEN,Public,School,4143 THIRD AVENUE,10457,-73.897148,40.844977
9462,P723X @ P218X,Public,School,1220 GERARD AVENUE,10452,-73.919939,40.83581
9464,FAMILY LIFE ACAD.CHARTER SCH.,Charter,School,14 WEST 170TH STREET,10452,-73.918548,40.840417
9466,KAPPA ACADEMY MS 215,Public,School,3630 THIRD AVENUE,10456,-73.904273,40.83366
9468,HARRIET TUBMAN CHARTER SCHOOL,Charter,School,3565 THIRD AVENUE,10456,-73.905505,40.832011
